,distr,address,phone,fullname,form,head,latitude,longitude
0,Таганский район,"109029, г. Москва, Большая Калитниковская ул., д.42/5",(495) 911-06-25,Государственное бюджетное образовательное учреждение города Москвы кадетская школа № 1785 «Таганский кадетский корпус»,бюджетное,Авдеева Елена Владимировна,37.6914901652,55.7360085677
1,район Зюзино,"117218, г. Москва, ул. Большая Черемушкинская, д.38",(495) 318-19-63,Государственное бюджетное образовательное учреждение дополнительного образования города Москвы «Дворец творчества детей и молодежи «Севастополец»,бюджетное,Исхаков Александр Искандарович,37.580764169,55.6789038015
2,Пресненский район,"123022, г. Москва, ул.Б.Декабрьская., д.9, стр.1",(499) 253-00-71,Государственное автономное учреждение города Москвы «Московский центр образовательного права»,автономное,Фатхуллин Руслан Зуфарович,37.5634564665,55.7645564704
3,район Текстильщики,"109390, г. Москва, 1-ая Текстильщиков ул., д. 5/8",(499) 178-02-16,Государственное бюджетное общеобразовательное учреждение города Москвы «Специальная (коррекционная) школа № 482»,бюджетное,Обухова Елена Владимировна,37.7367313473,55.7019101396
4,Пресненский район,"125009, г. Москва, Хлыновский туп., д.3, стр.5",(495) 690-20-12,Государственное бюджетное общеобразовательное учреждение города Москвы «Школа с углубленным изучением предметов художественно-эстетического цикла средствами театрального искусства № 123»,бюджетное,Голова Татьяна Леонидовна,37.6028155335,55.7581469292
5,район Некрасовка,"111674, г. Москва, проспект Защитников Москвы, д. 9, корп.2",(499) 588-00-50,Государственное бюджетное образовательное учреждение города Москвы средняя общеобразовательная школа № 2051 «Педагогический комплекс»,бюджетное,Семенова Елена Николаевна,37.9222921098,55.7041666784
6,Ярославский район,"129337, г. Москва, Ярославское шоссе, д. 5строение 2",(499) 188-21-47,Государственное бюджетное профессиональное образовательное учреждение города Москвы «Московский издательско-полиграфический колледж имени Ивана Федорова»,бюджетное,Татаренкова Татьяна Ивановна,37.6765126802,55.8528026151
7,район Измайлово,"105043, г. Москва, 7-я Парковая, дом 1-а",(499) 165-56-53,Государственное бюджетное образовательное учреждение города Москвы центр образования № 1483,бюджетное,Усова Ольга Ивановна,37.7939029337,55.7908040688
8,район Выхино-Жулебино,"109153, г. Москва, ул.Маршала Полубоярова, д.22",(495) 705-79-50,Государственное бюджетное общеобразовательное учреждение города Москвы «Школа № 1905»,бюджетное,Сарбеева Яна Юрьевна,37.8593692018,55.6813112371
9,район Новокосино,"111672, г. Москва, ул.Новокосинская, д. 40 А",(495) 702-32-83,Государственное бюджетное общеобразовательное учреждение города Москвы «Гимназия № 1591»,бюджетное,Гольдберг Владимир Абрамович,37.8724729455,55.7446377589
10,район Чертаново Центральное,"115404, г. Москва, ул.6-ая Радиальная, д.10",(495) 389-17-27,Государственное бюджетное профессиональное образовательное учреждение города Москвы «Пищевой колледж № 33»,бюджетное,Молчанов Павел Викторович,37.6650163723,55.6084996166
11,район Тропарёво-Никулино,"119602, г. Москва, ул. Академика Анохина, д.48",(495) 438-67-00,Государственное бюджетное образовательное учреждение города Москвы средняя общеобразовательная школа с углубленным изучением информатики и английского языка № 1307,бюджетное,Судницына Марина Вячеславовна,37.4689133612,55.6526592611
12,район Матушкино,"124498, г. Москва, Зеленоград Березовая аллея д.8А",(499) 710-23-53,Государственное бюджетное общеобразовательное учреждение города Москвы «Школа с углубленным изучением английского языка № 1353 имени генерала Д.Ф. Алексеева»,бюджетное,Дороничева Светлана Владимировна,37.2025988557,55.995230595
13,район Северное Бутово,"117216, г. Москва, ул.Грина, д.18 б",(495) 711-37-90,Государственное бюджетное образовательное учреждение города Москвы средняя общеобразовательная школа с углубленным изучением английского языка № 1356,бюджетное,Рослякова Лариса Эдуардовна,37.586327294,55.5669747171
14,Тимирязевский район,"127206, г. Москва, улица Вучетича, дом 30, строение 1",(495) 611-53-21,Государственное казенное общеобразовательное учреждение города Москвы «Кадетская школа-интернат № 1 «Первый Московский кадетский корпус»,казённое,Крымский Владимир Яковлевич,37.559714914,55.8153892629
15,Бескудниковский район,"127247, г. Москва, Бескудниковский проезд, дом 4 Б",(499) 489-73-20,Государственное бюджетное общеобразовательное учреждение города Москвы «Гимназия № 1592»,бюджетное,Богданов Антон Валерьевич,37.5508575678,55.877233754
16,Тверской район,"125167, г. Москва, Авиационный пер., д. 6",(495) 692-48-51,Государственное автономное образовательное учреждение высшего профессионального образования города Москвы «Московский институт открытого образования» (средняя общеобразовательная школа № 179),автономное,Якушкин Павел Алексеевич,37.6144773972,55.7594732346
17,район Москворечье-Сабурово,"115522, г. Москва, Пролетарский пр-т, д.6, корп.3",(499) 324-29-21,Государственное бюджетное образовательное учреждение города Москвы лицей № 1511 при «Национальном исследовательском ядерном университете «МИФИ»,бюджетное,Елютин Сергей Олегович,37.6526623689,55.6484199123
18,район Проспект Вернадского,"119454, г. Москва, ул.Лобачевского, д.92",(495) 932-87-09,Государственное бюджетное общеобразовательное учреждение города Москвы «Школа с углубленным изучением отдельных предметов № 1973»,бюджетное,Макарова Людмила Эдуардовна,37.4848614802,55.6808911294
19,район Преображенское,"107553, г. Москва, ул.Большая Черкизовская, д.15",(499) 161-15-06,Государственное бюджетное образовательное учреждение дополнительного образования города Москвы «Дворец творчества детей и молодежи «Преображенский»,бюджетное,Коминова Елена Борисовна,37.7333454693,55.8027895398
20,район Орехово-Борисово Северное,"115569, г. Москва, Шипиловская ул., д. 17, к. 1, стр. 1",(495) 392-89-00,Государственное бюджетное профессиональное образовательное учреждение города Москвы «Юридический колледж»,бюджетное,Самойлов Георгий Владимирович,37.7081098523,55.6200842761
21,район Ново-Переделкино,"119634, г. Москва, ул. Чоботовская, д. 5, корп.1",(495) 731-99-34,Государственное бюджетное образовательное учреждение города Москвы центр детского творчества «Ново-Переделкино»,бюджетное,Шатова Елена Леонидовна,37.352424777,55.6425659476
22,Мещанский район,"105094, г. Москва, Госпитальный вал, д.1А, стр.1",(495) 288-57-87,Государственное бюджетное учреждение дополнительного образования города Москвы «Детский образовательный центр «Центральный»,бюджетное,Николаичева Инесса Михайловна,37.7032336876,55.7705030034
23,район Косино-Ухтомский,"111621, г. Москва, Муромская ул., д.1А",(926) 557-77-16,Государственное бюджетное общеобразовательное учреждение города Москвы «Школа № 1022»,бюджетное,Куляшова Юлия Николаевна,37.8580641399,55.7112776842
24,район Чертаново Северное,"117208, г. Москва, Сумской пр. д.6 Б",(495) 311-81-18,Государственное бюджетное образовательное учреждение дополнительного образования города Москвы «Центр внешкольной работы «На Сумском»,бюджетное,Абрамова Елена Ивановна,37.6025707088,55.6289040174
25,район Солнцево,"119619, г. Москва, ул.Наро-Фоминская, д.1",(495) 435-72-42,Государственное бюджетное общеобразовательное учреждение города Москвы «Школа № 1000»,бюджетное,Абродина Елена Михайловна,37.4093646185,55.6460321573
26,Таганский район,"109029, г. Москва, ул.Б.Калитниковская, д.36, стр.1",(495) 670-50-81,Государственное бюджетное профессиональное образовательное учреждение города Москвы «Колледж сферы услуг № 3»,бюджетное,Корчагина Маргарита Ивановна,37.6845722534,55.7368032654
27,район Тёплый Стан,"117465, г. Москва, ул. Теплый Стан, дом 13, корпус 3",(495) 337-30-77,Государственное бюджетное общеобразовательное учреждение города Москвы «Гимназия № 1532»,бюджетное,Бутырская Маргорита Афанасьевна,37.4934652946,55.6179427518
28,район Богородское,"107370, г. Москва, ул. Бойцовая, д. 6, кор. 8А",(499) 160-86-16,Государственное бюджетное общеобразовательное учреждение города Москвы «Школа № 386»,бюджетное,Клюхина Александра Игоревна,37.720629531,55.8094665503
29,район Южное Бутово,"117041, г. Москва, ул. Адмирала Лазарева, д. 77",(499) 793-70-30,Государственное бюджетное общеобразовательное учреждение города Москвы «Гимназия № 1786»,бюджетное,Гладик Владимир Адамович,37.4964304756,55.5347285903
30,район Орехово-Борисово Северное,"115563, г. Москва, Борисовский пр., д.40, корп.3",(495) 394-02-54,Государственное бюджетное общеобразовательное учреждение города Москвы «Школа № 438»,бюджетное,Отке Наталья Вячеславовна,37.7225279234,55.617577357
31,район Крылатское,"121609, г. Москва, Осенний б-р, д.10, корп.3",(495) 415-98-55,Государственное бюджетное общеобразовательное учреждение города Москвы «Школа № 1440»,бюджетное,Миняйло Ирина Николаевна,37.3963554149,55.7701503027
32,район Ново-Переделкино,"119634, г. Москва, ул. Чоботовская, д.19",(495) 733-14-67,Государственное бюджетное общеобразовательное учреждение города Москвы «Школа с углубленным изучением английского языка № 1238»,бюджетное,Савельева Анна Владимировна,37.3457044171,55.6453883289
33,Войковский район,"125212, г. Москва, Ленинградское шоссе, д. 30",(495) 123-67-01,Государственное бюджетное общеобразовательное учреждение города Москвы «Школа № 744 имени Петра Николаевича Еремеева»,бюджетное,Ганьшина Елена Валентиновна,37.4910812707,55.8293555692
34,район Лианозово,"127572, г. Москва, Алтуфьевское ш., д.97, корп.3",(499) 200-87-38,Государственное бюджетное общеобразовательное учреждение города Москвы «Школа № 166»,бюджетное,Шпакова Виктория Юрьевна,37.5821953355,55.9009657722
35,район Ясенево,"121357, г. Москва, ул. Кременчугская д. 13",(495) 427-51-98,Государственное бюджетное общеобразовательное учреждение города Москвы «Школа-интернат «Интеллектуал»,бюджетное,Тихорский Юрий Борисович,37.4615299486,55.7168642436
36,район Тропарёво-Никулино,"119571, г. Москва, Вернадского пр-т, д.127, корп.2",(495) 434-31-04,Государственное бюджетное общеобразовательное учреждение города Москвы «Образовательный центр на проспекте Вернадского»,бюджетное,Беспалова Светлана Анатольевна,37.4901835654,55.6566239176
37,район Проспект Вернадского,"119607, г. Москва, ул. Удальцова, д.40",(499) 432-39-01,Государственное бюджетное образовательное учреждение города Москвы центр образования № 1953 «Москва-98»,бюджетное,Барановский Александр Петрович,37.4942729622,55.6853217898
38,район Северное Измайлово,"105215, г. Москва, ул. 5-я Парковая, дом 60",(499) 163-91-32,Государственное бюджетное образовательное учреждение города Москвы центр развития творчества детей и юношества имени А.В. Косарева,бюджетное,Королева Татьяна Ивановна,37.7893075704,55.8063752696
39,район Восточное Дегунино,"127591, г. Москва, Керамический проезд, дом 55, корпус 3",(499) 900-08-50,Государственное бюджетное общеобразовательное учреждение города Москвы «Центр образования № 1296»,бюджетное,Громовая Ирина Николаевна,37.5626574849,55.8788212097
40,район Раменки,"119192, г. Москва, ул. Столетова, д. 3",(499) 665-85-26,Государственное бюджетное общеобразовательное учреждение города Москвы «Школа № 37»,бюджетное,Баринова Татьяна Юрьевна,37.5003038239,55.7031327203
41,район Нагатинский Затон,"115470, г. Москва, пр-т Андропова, д.17, корп.5",(499) 612-00-55,Государственное бюджетное общеобразовательное учреждение города Москвы «Гимназия № 1527»,бюджетное,Кадыкова Елена Владимировна,37.6694429384,55.6828070357
42,район Беговой,"125040, г. Москва, ул.Расковой, д.20А, стр.1",(495) 612-40-41,Государственное казенное общеобразовательное учреждение города Москвы «Специальная (коррекционная) общеобразовательная школа-интернат № 52»,бюджетное,Подвальная Елена Владимировна,37.574139694,55.787686516
43,район Вешняки,"111395, г. Москва, ул. Красный Казанец, д.3А",(499) 373-36-96,Государственное бюджетное общеобразовательное учреждение города Москвы «Школа № 810»,бюджетное,Филипов Виктор Владимирович,37.8114888317,55.7240730988
44,Нагорный район,"117638, г. Москва, Нахимовский пр-т, д.6",(499) 794-29-45,Государственное бюджетное общеобразовательное учреждение города Москвы «Центр инклюзивного образования «Южный»,бюджетное,Бурлакина Ольга Викторовна,37.6095861106,55.6645144918
45,район Марьино,"109144, г. Москва, Батайский пр., д.47",(499) 356-73-92,Государственное бюджетное общеобразовательное учреждение города Москвы «Школа № 1394 «Воспитательно-образовательный центр «На набережной»,бюджетное,Тихонов Валерий Анатольевич,37.7365196772,55.6445225981
46,Обручевский район,"117393, г. Москва, ул. Профсоюзная, дом № 62",(499) 128-76-12,Государственное бюджетное образовательное учреждение города Москвы специальная (коррекционная) общеобразовательная школа-интернат VI вида № 17,бюджетное,Игнатенко Тамара Викторовна,37.5495425348,55.6674212711
47,Басманный район,"119121, г. Москва, 1-ый Тружеников пер., д.18",(499) 261-89-07,Государственное казенное общеобразовательное учреждение города Москвы «Школа № 2124 «Центр развития и коррекции»,бюджетное,Рыжих Людмила Леонидовна,37.6717823921,55.7653935991
48,район Южное Тушино,"125364, г. Москва, ул. Свободы, д. 42, корп. 2",(499) 497-00-98,Государственное бюджетное общеобразовательное учреждение города Москвы «Гимназия № 1551»,бюджетное,Балакирева Вера Витальевна,37.4521204144,55.8491405418
49,район Южное Бутово,"117042, г. Москва, ул. Горчакова, д. 9, корп. 1",(495) 716-29-35,Государственное бюджетное образовательное учреждение города Москвы средняя общеобразовательная школа с углубленным изучением физики и математики № 2007,бюджетное,Старовойт Сергей Георгиевич,37.5325918216,55.5449361331
50,Обручевский район,"117630, г. Москва, улица Академика Челомея, дом 6а",(495) 936-30-95,Государственное бюджетное общеобразовательное учреждение города Москвы «Школа № 1100»,бюджетное,Микаелян Гарри Суренович,37.5288655154,55.6626313656
51,район Старое Крюково,"124575, г. Москва, Зеленоград, корп.921А",(499) 731-43-92,Государственное бюджетное общеобразовательное учреждение города Москвы «Школа № 719»,бюджетное,Кисетова Зульфия Максутовна,37.1866205315,55.9846626514
52,Останкинский район,"129515, г. Москва, 1-я Останкинская улица, дом 29",(495) 616-48-29,Государственное бюджетное образовательное учреждение города Москвы средняя общеобразовательная школа с углубленным изучением английского языка № 1415,бюджетное,Загородникова Галина Николаевна,37.6282683066,55.8236519251
53,Даниловский район,"115114, г. Москва, ул.Дербеневская, д.13",(495) 959-77-38,Государственное бюджетное общеобразовательное учреждение города Москвы «Лицей № 1553 имени В.И. Вернадского»,бюджетное,Калачихина Ольга Данииловна,37.6491079696,55.7212491729
54,Войковский район,"125130, г. Москва, ул. Зои и Александра Космодемьянских, дом 3, корпус 1",(499) 150-00-32,Государственное бюджетное общеобразовательное учреждение города Москвы «Гимназия № 201 ордена Трудового Красного Знамени имени Героев Советского Союза Зои и Александра Космодемьянских»,бюджетное,Подольская Елена Викторовна,37.5135280995,55.8228924272
55,Войковский район,"125212, г. Москва, Лениградское шоссе, д. 54",(499) 159-72-61,Государственное бюджетное общеобразовательное учреждение города Москвы «Школа № 224»,бюджетное,Головлева Инна Васильевна,37.484338431,55.8380322271
56,район Сокол,"127434, г. Москва, Дмитровское шоссе, д. 11 А",(499) 198-70-43,Государственное бюджетное профессиональное образовательное учреждение города Москвы «Колледж сферы услуг № 10»,бюджетное,Теплова Галина Борисовна,37.5658901814,55.8137110638
57,район Кунцево,"121359, г. Москва, ул.Партизанская, д.45",(499) 141-01-41,Государственное бюджетное образовательное учреждение города Москвы центр внешкольной работы «Синегория»,бюджетное,Костякова Ольга Юрьевна,37.4021652011,55.7395680181
58,Басманный район,"101000, г. Москва, пер.Огородная Слобода, д.6, стр.1",(495) 621-33-70,Государственное бюджетное образовательное учреждение города Москвы дворец творчества детей и молодежи,бюджетное,Кузьмина Лариса Ивановна,37.6423645206,55.7655533562
59,район Сокольники,"107014, г. Москва, ул. Большая Остроумовская, дом 7",(495) 603-07-14,Государственное бюджетное общеобразовательное учреждение города Москвы «Прогимназия № 1752 в Сокольниках»,бюджетное,Рябинина Ирина Герольдовна,37.6855537293,55.793232589
60,Тимирязевский район,"127206, г. Москва, Астрадамская ул., д. 5В",(495) 611-41-33,Государственное бюджетное образовательное учреждение города Москвы детский сад присмотра и оздоровления № 766,бюджетное,Андрианова Юлия Сергеевна,37.5621946821,55.8108533438
61,район Ивановское,"111531, г. Москва, шоссе Энтузиастов, дом 100 А",(495) 307-38-01,Государственное бюджетное общеобразовательное учреждение города Москвы «Школа № 400»,бюджетное,Осипова Александра Анатольевна,37.8358945496,55.7734762177
62,район Очаково-Матвеевское,"119361, г. Москва, ул. Б. Очаковская, д. 25",(495) 430-63-35,Государственное бюджетное образовательное учреждение города Москвы специальная (коррекционная) общеобразовательная школа VIII вида № 571,бюджетное,Зацепина Любовь Васильевна,37.4535666488,55.6802767633
63,район Беговой,"125124, г. Москва, ул.Правды, д.3А",(495) 614-01-18,Государственное бюджетное образовательное учреждение города Москвы центр творческого развития и гуманитарного образования «Поликультурный центр»,бюджетное,Варданян Давид Назарович,37.5756875,55.7846282893
64,Пресненский район,"123056, г. Москва, ул.Зоологическая, д.28, стр.1",(499) 254-96-97,Государственное бюджетное общеобразовательное учреждение города Москвы «Школа с углубленным изучением отдельных предметов № 1950»,бюджетное,Паршина Екатерина Александровна,37.5855746719,55.7720227444
65,район Нагатино-Садовники,"115201, г. Москва, Старокаширское ш., д.2, корп.11",(499) 612-03-39,Государственное бюджетное общеобразовательное учреждение города Москвы «Школа с углубленным изучением отдельных предметов № 1073»,бюджетное,Ларионова Евгения Иосифовна,37.6272097732,55.6601519524
66,район Очаково-Матвеевское,"121359, г. Москва, улица Бобруйская, дом 23",(495) 446-42-54,Государственное бюджетное профессиональное образовательное учреждение города Москвы «Образовательный комплекс сферы услуг»,бюджетное,Мирошкин Кирилл Петрович,37.4106198471,55.7366450065
67,район Некрасовка,"111674, г. Москва, ул.1-я Вольская, д. 9, к.3",(499) 211-20-07,Государственное бюджетное общеобразовательное учреждение города Москвы «Школа № 2089»,бюджетное,Артемьев Александр Николаевич,37.9175156608,55.6822066124
68,район Хорошёво-Мнёвники,"123154, г. Москва, улица Маршала Тухачевского, дом 20, корп. 1",(499) 197-51-23,Государственное бюджетное образовательное учреждение дополнительного образования города Москвы «Дворец творчества детей и молодежи «Хорошево»,бюджетное,Ледовская Татьяна Леонидовна,37.4796289705,55.7841842879
69,район Выхино-Жулебино,"109444, г. Москва, Ташкентская улица, дом 23, корпус 4, строение 1",(495) 376-84-67,Государственное бюджетное образовательное учреждение города Москвы специальная (коррекционная) общеобразовательная школа VIII вида № 895,бюджетное,Гурина Светлана Александровна,37.8136260594,55.7004351407
70,район Куркино,"125465, г. Москва, ул. Соколово-Мещерская, д.27",(499) 501-28-61,Государственное бюджетное общеобразовательное учреждение города Москвы «Школа с углубленным изучением иностранных языков № 1387»,бюджетное,Андреева Марина Геннадьевна,37.3816764033,55.9034266303
71,район Зябликово,"115580, г. Москва, Шипиловская ул., д.59, корп.2",(495) 395-12-12,Государственное бюджетное общеобразовательное учреждение города Москвы «Специальная (коррекционная) школа № 991»,бюджетное,Акацевич Наталья Васильевна,37.7497971701,55.6249480083
72,район Аэропорт,"125315, г. Москва, Коптевский Б. пр., д. 5",(499) 152-72-66,Государственное казенное общеобразовательное учреждение города Москвы «Специальная (коррекционная) общеобразовательная школа-интернат № 2»,бюджетное,Суворов Павел Андреевич,37.5355900132,55.8100380706
73,район Строгино,"123458, г. Москва, ул.Таллинская, д.16, корп.4",(495) 756-62-90,Государственное бюджетное общеобразовательное учреждение города Москвы «Школа № 1155»,бюджетное,Федулов Константин Владимирович,37.4003064426,55.796415791
74,район Новогиреево,"111558, г. Москва, Зеленый пр-кт, д. 75 стр. 1",(495) 302-33-03,Государственное бюджетное общеобразовательное учреждение города Москвы «Гимназия № 1798 «Феникс»,бюджетное,Урман Елена Евгеньевна,37.8047308195,55.7541581091
75,район Черёмушки,"117246, г. Москва, ул. Херсонская, дом 27 А",(495) 332-64-22,Государственное бюджетное общеобразовательное учреждение города Москвы «Школа № 15»,бюджетное,Белов Андрей Владимирович,37.5579671326,55.6520938829
76,район Раменки,"119192, г. Москва, Мичуринский пр-т, д.5, корп.1",(495) 544-53-85,Государственное бюджетное общеобразовательное учреждение города Москвы «Шуваловская гимназия № 1448»,бюджетное,Дмитриева Ольга Александровна,37.5133076205,55.7020588439
77,район Зябликово,"115580, г. Москва, ул.Мусы Джалиля, д.25",(495) 396-83-65,Государственное бюджетное общеобразовательное учреждение города Москвы «Гимназия № 1552»,бюджетное,Авилова Оксана Григорьевна,37.7451021499,55.6247067738
78,Рязанский район,"109377, г. Москва, 12-я Новокузьминская улица, дом 6, корпус 2",(495) 379-63-47,Государственное бюджетное образовательное учреждение города Москвы центр развития творчества детей и юношества «Технорама на Юго-Востоке»,бюджетное,Барышев Андрей Юрьевич,37.7804702949,55.7148835657
79,район Зюзино,"117461, г. Москва, ул.Каховка, д.19, корп.2",(499) 122-84-70,Государственное бюджетное общеобразовательное учреждение города Москвы «Школа № 538 имени С.В. Гришина»,бюджетное,Белянин Алексей Александрович,37.5770280463,55.6524039542
80,район Перово,"111123, г. Москва, 3-я Владимирская улица дом 5",(495) 303-31-50,Государственное бюджетное общеобразовательное учреждение города Москвы «Московская международная гимназия»,бюджетное,Шкуренко Елена Васильевна,37.7864616558,55.7625370326
81,район Чертаново Центральное,"117525, г. Москва, Днепропетровская улица, дом 25 корпус 1",(495) 315-28-71,Государственное бюджетное учреждение города Москвы «Московский городской дом учителя»,бюджетное,Минько Нина Григорьевна,37.5855228163,55.6216085522
82,район Восточное Дегунино,"127591, г. Москва, ул. 800-летия Москвы, д. 7а",(495) 485-97-32,Государственное бюджетное общеобразовательное учреждение города Москвы «Школа № 222»,бюджетное,Баскакова Наталья Анатольевна,37.560959408,55.8861627569
83,Ярославский район,"129337, г. Москва, Ярославское шоссе, дом ( владение) 8, корп. 6",(499) 188-47-47,Государственное бюджетное общеобразовательное учреждение города Москвы «Гимназия № 1577»,бюджетное,Юрова Алла Геннадьевна,37.6884727508,55.8519186569
84,район Строгино,"123458, г. Москва, ул. Твардовского, д. 10, корп. 1",(495) 756-30-60,Государственное бюджетное профессиональное образовательное учреждение города Москвы «Техникум малого бизнеса № 67»,бюджетное,Комолова Татьяна Ивановна,37.394849094,55.793716336
85,район Некрасовка,"111674, г. Москва, ул. 2-я Вольская, д.7, корп.2",(499) 211-24-40,Государственное бюджетное образовательное учреждение города Москвы гимназия № 1595,бюджетное,Силина Лада Владимировна,37.9220561818,55.688056802
86,район Ивановское,"105568, г. Москва, ул. Челябинская, д. 20",(499) 308-00-29,Государственное бюджетное образовательное учреждение города Москвы гимназия № 1476,бюджетное,Ионова Ирина Валерьевна,37.8357421345,55.7782281563
87,район Ново-Переделкино,"119634, г. Москва, ул.Лукинская, д.12, корп.1",(499) 739-09-26,Государственное бюджетное общеобразовательное учреждение города Москвы «Школа с углубленным изучением естественных наук № 1376»,бюджетное,Ильина Наталья Владимировна,37.3413465348,55.648953251
88,Нагорный район,"117638, г. Москва, Нахимовский пр-т, д.6",(499) 613-17-22,Государственное казенное общеобразовательное учреждение города Москвы «Специальная (коррекционная) общеобразовательная школа-интернат № 73»,казённое,Зимнухова Ирина Владимировна,37.6094472348,55.6651248255
89,Басманный район,"105005, г. Москва, Госпитальный переулок, д. 3",(499) 267-20-48,Государственное бюджетное общеобразовательное учреждение города Москвы «Школа № 1247 имени Юргиса Балтрушайтиса»,бюджетное,Валаткайте Солвейга Прановна,37.6877108277,55.7710207801
90,район Богородское,"105037, г. Москва, ул. 1-я Парковая, д. 12",(499) 160-88-10,Государственное бюджетное профессиональное образовательное учреждение города Москвы «Колледж автоматизации и информационных технологий № 20»,бюджетное,Набатова Анна Юрьевна,37.7883129827,55.8049032472
91,район Хорошёво-Мнёвники,"123423, г. Москва, ул. Народного Ополчения, д. 16, корп. 4",(499) 191-25-94,Государственное бюджетное образовательное учреждение города Москвы гимназия № 1522,бюджетное,Воробьева Вера Владимировна,37.4820334028,55.7729245171
92,район Южное Тушино,"125371, г. Москва, Волоколамское шоссе, дом 112, корп. 3",(499) 497-65-87,Государственное бюджетное профессиональное образовательное учреждение города Москвы «Политехнический техникум № 47 имени В.Г. Федорова»,бюджетное,Сынгаевский Дмитрий Алексеевич,37.4230033515,55.8304736373
93,Даниловский район,"115093, г. Москва, 1-й Павловский пер., д.7",(495) 952-60-81,Государственное казенное общеобразовательное учреждение города Москвы «Специальная (коррекционная) общеобразовательная школа-интернат № 79»,бюджетное,Тураносова Вера Николаевна,37.6320017581,55.7167304599
94,район Кунцево,"121351, г. Москва, ул. Партизанская, д.30, корп.2, стр.2",(499) 141-72-23,Государственное бюджетное общеобразовательное учреждение города Москвы «Школа № 64»,бюджетное,Яшина Галина Алексеевна,37.419183779,55.73601379
95,район Соколиная Гора,"105187, г. Москва, ул. Щербаковская, д. 36А",(495) 366-68-00,Государственное бюджетное общеобразовательное учреждение города Москвы «Школа № 1947»,бюджетное,Голованова Лариса Евгеньевна,37.7269983504,55.7811494062
96,район Митино,"125368, Москва, ул. Митинская, д. 45, к. 3",(495) 751-60-49,Государственное бюджетное профессиональное образовательное учреждение города Москвы «Педагогический колледж № 18 Митино»,бюджетное,Сергеева Татьяна Сергеевна,37.349584035,55.8501702274
97,Можайский район,"121471, г. Москва, ул.Гжатская, д.6",(495) 443-82-85,Государственное бюджетное общеобразовательное учреждение города Москвы «Школа № 391»,бюджетное,Неверова Лариса Васильевна,37.4406601386,55.7158959554
98,район Перово,"111401, г. Москва, 3-я Владимирская ул., д.26А",(495) 306-54-20,Государственное бюджетное общеобразовательное учреждение города Москвы «Школа с углубленным изучением немецкого языка № 1269»,бюджетное,Курнышева Екатерина Владимировна,37.7865694027,55.7541728595
99,район Щукино,"123298, г. Москва, ул. Маршала Бирюзова, д. 5",(499) 198-09-92,Государственное автономное учреждение дополнительного образования города Москвы «Детский музыкальный театр «Домисолька»,бюджетное,Жиганов Иван Назибович,37.4973722852,55.7904385017
100,район Печатники,"109548, г. Москва, ул. Гурьянова, д.6, к.2",(495) 357-54-11,Государственное бюджетное образовательное учреждение города Москвы лицей № 1524,бюджетное,Басевская Ольга Борисовна,37.7203481726,55.6910992911
101,Обручевский район,"119421, г. Москва, Ленинский проспект, дом 97, корпус 1",(499) 132-32-56,Государственное бюджетное общеобразовательное учреждение города Москвы «Центр образования № 1311 «Тхия»,бюджетное,Проценко Ирина Александровна,37.5240466264,55.6715465999
102,район Коптево,"125239, г. Москва, Соболевский проезд, дом 17а",(499) 153-91-21,Государственное бюджетное образовательное учреждение города Москвы специальная общеобразовательная школа № 1,бюджетное,Гусев Борис Борисович,37.5258316593,55.8339929198
103,район Чертаново Южное,"117535, г. Москва, ул.Дорожная, д.20А",(495) 382-04-65,Государственное бюджетное общеобразовательное учреждение города Москвы «Гимназия № 1526»,бюджетное,Болдина Тамара Герасимовна,37.6207148291,55.6028332109
104,район Люблино,"109559, г. Москва, ул. Белореченская, д. 19, корп. 2",(495) 359-57-47,Государственное бюджетное общеобразовательное учреждение города Москвы «Школа с этнокультурным татарским компонентом образования № 1186 имени Мусы Джалиля»,бюджетное,Гирфанова Лемма Исхаковна,37.7674862618,55.6721963248
105,район Зюзино,"117303, г. Москва, ул. Одесская, д. 12А",(495) 318-04-67,"Государственное бюджетное образовательное учреждение дополнительного образования города Москвы «Московский детско-юношеский центр экологии, краеведения и туризма»",бюджетное,Моргун Дмитрий Владимирович,37.5588631131,55.8008530013
106,Нагорный район,"117452, г. Москва, Черноморский б-р, д.8",(499) 610-19-30,Государственное бюджетное общеобразовательное учреждение города Москвы «Специальная (коррекционная) школа № 567»,бюджетное,Мухина Ирина Федоровна,37.6127624827,55.6461308704
107,Нижегородский район,"109202, г. Москва, ул. Басовская, д. 7",(499) 171-03-60,Государственное бюджетное общеобразовательное учреждение города Москвы «Школа № 439 «Инженерный лицей «Интеллект»,бюджетное,Рототаева Нина Алексеевна,37.7472804606,55.7353904827
108,район Северное Медведково,"127282, г. Москва, ул. Широкая, д.1А",(499) 798-32-03,Государственное бюджетное общеобразовательное учреждение города Москвы «Гимназия № 1506»,бюджетное,Коротких Виктория Петровна,37.6571075292,55.8918971821
109,Гагаринский район,"119333, г. Москва, улица Фотиевой, дом 18",(499) 137-17-69,Государственное бюджетное образовательное учреждение города Москвы лицей «Вторая школа»,бюджетное,Овчинников Владимир Федорович,37.5557234665,55.6979815241
110,район Строгино,"123592, г. Москва, ул. Кулакова, д. 25, кор. 2",(495) 758-67-00,Государственное бюджетное общеобразовательное учреждение города Москвы «Школа № 705»,бюджетное,Калинина Людмила Андреевна,37.3941894736,55.8015958843
111,район Коптево,"125008, г. Москва, ул. Михалковская, д. 22",(499) 154-50-03,Государственное бюджетное образовательное учреждение города Москвы центр творческого развития и музыкально-эстетического образования детей и юношества «Радость»,бюджетное,Жданова Татьяна Арамовна,37.5288660554,55.8398219672
112,район Бирюлёво Восточное,"115404, г. Москва, ул.Бирюлевская, д.28",(495) 326-37-29,Государственное бюджетное образовательное учреждение среднего профессионального образования города Москвы Педагогический колледж № 15,бюджетное,Шалашов Владимир Васильевич,37.6709226104,55.5857527437
113,район Нагатинский Затон,"115407, г. Москва, ул.Судостроительная, д.31, корп.2",(499) 618-55-55,Государственное бюджетное общеобразовательное учреждение города Москвы «Школа № 1055»,бюджетное,Майоров Николай Николаевич,37.6810325482,55.6842460209
114,район Хамовники,"119034, г. Москва, Хилков пер., д.3А",(499) 766-93-12,Государственное бюджетное образовательное учреждение города Москвы Лингвистический лицей № 1555,бюджетное,Родина Надежда Александровна,37.5978514964,55.7374944161
115,Басманный район,"109028, г. Москва, Покровский б-р, д.10",(495) 917-81-28,Государственное бюджетное образовательное учреждение города Москвы центр эстетического воспитания детей,бюджетное,Кондратьева Антонина Викторовна,37.6467235257,55.7567084272
116,район Перово,"111123, г. Москва, Владимирская 1-я улица, дом 20",(495) 672-67-72,Государственное бюджетное образовательное учреждение дополнительного образования города Москвы «Дворец творчества детей и молодежи «Восточный»,бюджетное,Краюшкина Елена Вячеславовна,37.8931827559,55.7169147876
117,Пресненский район,"123242, г. Москва, ул.Дружинниковская, д.9, стр.2",(495) 605-74-15,Государственное бюджетное образовательное учреждение дополнительного образования города Москвы «Центр развития творчества детей и юношества «Пресня»,бюджетное,Хорец Владислав Анатольевич,37.5722085365,55.7571299299
118,Академический район,"117218, г. Москва, Кржижановского ул., д. 30",(499) 129-78-00,Государственное бюджетное образовательное учреждение города Москвы средняя общеобразовательная школа с углубленным изучением английского языка № 1280,бюджетное,Рыженко Татьяна Соломоновна,37.5786919905,55.6759698423
119,район Выхино-Жулебино,"109145, г. Москва, Пронская ул., д.4, корп.1",(495) 705-61-96,Государственное бюджетное общеобразовательное учреждение города Москвы «Школа с углубленным изучением английского языка № 1359 имени авиаконструктора М.Л.Миля»,бюджетное,Новикова Галина Вячеславовна,37.8542959594,55.6982554972
120,район Чертаново Южное,"117545, г. Москва, ул. Подольских Курсантов, д. 16 А",(495) 381-85-28,Государственное бюджетное общеобразовательное учреждение города Москвы «Школа № 657»,бюджетное,Советова Елена Викторовна,37.6121691899,55.6058531175
121,район Строгино,"123592, г. Москва, ул. Маршала Катукова, д. 12, к. 3",(495) 750-35-56,Государственное бюджетное общеобразовательное учреждение города Москвы «Лицей № 86 имени М.Е. Катукова»,бюджетное,Самсонов Павел Иванович,37.4033094879,55.8086239338
122,район Дорогомилово,"121165, г. Москва, ул. Студенческая, д.29, 27.",(000) 000-00-00,Государственное бюджетное общеобразовательное учреждение города Москвы «Гимназия № 710 им. Народного учителя СССР В.К. Жудова»,бюджетное,Сомов Денис Сергеевич,37.5447229646,55.7403187283
123,район Выхино-Жулебино,"109156, г. Москва, ул. Привольная, 41",(495) 704-52-06,Государственное бюджетное общеобразовательное учреждение города Москвы «Школа № 1908»,бюджетное,Трофимовская Анжелика Валерьевна,37.8556816768,55.688998525
124,Таганский район,"109029, г. Москва, ул.Средняя Калитниковская, д.9/11, стр.1",(495) 912-56-10,Государственное бюджетное общеобразовательное учреждение города Москвы «Открытая (сменная) школа № 88»,бюджетное,Маслова Валентина Михайловна,37.6810701733,55.7368488966
125,Таганский район,"105120, г. Москва, Б.Полуярославский пер., д.7/4, стр.1-1А",(495) 916-18-86,Государственное бюджетное общеобразовательное учреждение города Москвы «Лицей № 1581»,бюджетное,Тверской Александр Сергеевич,37.6624272107,55.7530353541
126,район Старое Крюково,"124575, г. Москва, Зеленоград, площадь Колумба, д. 1",(499) 731-14-61,Государственное бюджетное образовательное учреждение дополнительного образования города Москвы «Зеленоградский дворец творчества детей и молодежи»,бюджетное,Сурначева Маргарита Александровна,37.1888768041,55.9882147671
127,район Дорогомилово,"121170, г. Москва, ул.Дениса Давыдова, д.5",(000) 000-00-00,Государственное бюджетное общеобразовательное учреждение города Москвы «Школа № 1726»,бюджетное,Золотарева Ольга Анатольевна,37.5208313032,55.7422784983
128,район Ново-Переделкино,"119634, г. Москва, ул.Шолохова, д.20",(495) 733-52-10,Государственное бюджетное общеобразовательное учреждение города Москвы «Школа № 1018»,бюджетное,Головин Алексей Дмитриевич,37.3526624792,55.6434519871
129,Красносельский район,"101000, г. Москва, Уланский пер., д.8",(495) 625-24-53,Государственное бюджетное общеобразовательное учреждение города Москвы «Школа с углубленным изучением английского языка № 1284»,бюджетное,Артемова Светлана Юрьевна,37.6375325104,55.7696037686
130,район Люблино,"109387, г. Москва, ул. Краснодарская, дом 9",(495) 350-86-62,Государственное бюджетное общеобразовательное учреждение города Москвы «Школа № 1143»,бюджетное,Стельмах Надежда Федоровна,37.7426958323,55.6788421921
131,район Марьино,"109451, г. Москва, ул. Белореченская, д. 45, к. 2",(495) 654-98-82,Государственное бюджетное общеобразовательное учреждение города Москвы «Школа № 1989 «Центр образования»,бюджетное,Серегина Ирина Викторовна,37.778384672,55.663498696
132,Ломоносовский район,"119313, г. Москва, ул. Вавилова, д. 84, корп. 2",(499) 134-30-07,Государственное бюджетное общеобразовательное учреждение города Москвы «Школа № 58»,бюджетное,Ветрова Ольга Игоревна,37.5407294058,55.6786916561
133,район Вешняки,"111538, г. Москва, ул. Косинская, д.24А",(495) 375-70-02,Государственное бюджетное общеобразовательное учреждение города Москвы «Гимназия № 1512»,бюджетное,Комзолов Павел Вячеславович,37.8241955682,55.7178129777
134,Тимирязевский район,"127206, г. Москва, ул. Вучетича, д.6",(495) 611-00-43,Государственное бюджетное общеобразовательное учреждение города Москвы «Школа № 216»,бюджетное,Жарикова Наталья Владимировна,37.5604876721,55.8086378644
135,район Новокосино,"111673, г. Москва, ул. Суздальская, д. 12В, стр. 1.",(495) 702-66-20,Государственное бюджетное общеобразовательное учреждение города Москвы «Школа № 2128 «Энергия»,бюджетное,Фролов Константин Александрович,37.8524585302,55.7391727344
136,район Бибирево,"127543, г. Москва, Белозерская ул., д.12",(499) 207-23-00,Государственное бюджетное общеобразовательное учреждение города Москвы «Государственная столичная гимназия»,бюджетное,Патрикеева Ирина Джолдошевна,37.5904884227,55.9006542597
137,Басманный район,"105064, г. Москва, Б. Казенный пер., д. 9",(495) 624-77-68,Государственное бюджетное общеобразовательное учреждение города Москвы «Школа № 2095 «Покровский квартал»,бюджетное,Новокрещенов Илья Владимирович,37.6357861034,55.7599337625
138,район Соколиная Гора,"107023, г. Москва, Нижний Журавлёв переулок, д.3",(499) 369-09-55,Государственное бюджетное общеобразовательное учреждение города Москвы «Школа с углубленным изучением экологии № 446»,бюджетное,Шахурина Ирина Ивановна,37.7058790498,55.7839631725
139,район Лефортово,"111024, г. Москва, Авиамоторная ул., д. 30а корп.1",(495) 673-32-03,Государственное бюджетное общеобразовательное учреждение города Москвы «Школа № 1321 «Ковчег»,бюджетное,Реуэль Роман Абрамович,37.7189981488,55.7508628817
140,район Матушкино,"124460, г. Москва, Зеленоград, проспект Генерала Алексеева, дом 38",(499) 736-56-03,Государственное бюджетное профессиональное образовательное учреждение города Москвы «Политехнический колледж № 50»,бюджетное,Бучкин Андрей Владимирович,37.1969160176,55.9747507679
141,Таганский район,"109240, г. Москва, ул. Солянка, д. 14 А",(495) 623-74-93,Государственное бюджетное общеобразовательное учреждение города Москвы «Школа межкультурных коммуникаций № 1650»,бюджетное,Цацурова Тереза Агасиевна,37.6373516996,55.7523968097
142,район Нагатинский Затон,"115142, г. Москва, Кленовый б-р, д.21",(499) 614-50-94,Государственное бюджетное образовательное учреждение города Москвы лицей № 1523,бюджетное,Пастухов Андрей Борисович,37.6816801101,55.6771590752
143,Донской район,"121151, г. Москва, Резервный проезд, д. 10",(495) 954-47-47,Государственное бюджетное общеобразовательное учреждение города Москвы «Центр образования «Технологии обучения»,бюджетное,Ездов Александр Анатольевич,37.601546536,55.7015977899
144,район Вешняки,"111395, г. Москва, ул. Молдагуловой, дом 6 А",(499) 374-11-31,Государственное казенное общеобразовательное учреждение города Москвы «Специальная (коррекционная) общеобразовательная школа-интернат № 31»,казённое,Бегун Виталий Викторович,37.8097030132,55.7267734464
145,район Косино-Ухтомский,"111625, г. Москва, ул. Златоустовская, д. 3",(495) 700-45-40,Государственное бюджетное общеобразовательное учреждение города Москвы «Центр образования № 1602»,бюджетное,Аникина Ирина Леонидовна,37.8650211105,55.7044857868
146,Нагорный район,"117452, г. Москва, Чонгарский б-р, д.17",(499) 610-04-69,Государственное бюджетное общеобразовательное учреждение города Москвы «Школа № 2016»,бюджетное,Черникова Светлана Алексеевна,37.6085833229,55.6523006644
147,район Аэропорт,"125319, г. Москва, ул.Усиевича, д.6",(499) 151-99-82,Государственное бюджетное общеобразовательное учреждение города Москвы «Лицей № 1575»,бюджетное,Боброва Ирина Ивановна,37.5466247534,55.8015101455
148,район Москворечье-Сабурово,"115409, г. Москва, Пролетарский пр-кт, д.7, корп.3",(499) 324-94-87,Государственное бюджетное общеобразовательное учреждение города Москвы «Гимназия № 1579»,бюджетное,Кудинова Марина Феликсовна,37.6594316065,55.6467909356
149,район Царицыно,"115516, г. Москва, ул. Бехтерева, д.51",(495) 321-96-10,Государственное бюджетное общеобразовательное учреждение города Москвы «Специальная (коррекционная) школа № 869»,бюджетное,Фомичева Наталья Алексеевна,37.64728084,55.6157521733
150,Тверской район,"125047, г. Москва, ул.Александра Невского, д.4",(499) 251-90-21,Государственное бюджетное образовательное учреждение дополнительного образования города Москвы «Дворец творчества детей и молодёжи на Миуссах»,бюджетное,Новикова Елена Викторовна,37.5922813631,55.7771546455
151,район Марфино,"127276, г. Москва, ул. Малая Ботаническая, д. 24б",(495) 618-81-56,Государственное бюджетное общеобразовательное учреждение города Москвы «Кадетская школа-интернат № 6 «Московский Георгиевский кадетский корпус»,бюджетное,Закирова Татьяна Михайловна,37.5830598304,55.8326200615
152,Головинский район,"125413, г. Москва, ул. Зеленоградская, д. 9",(495) 453-01-50,Государственное бюджетное общеобразовательное учреждение города Москвы «Кадетская школа № 1702 «Петровский кадетский корпус»,бюджетное,Збойкова Маргарита Васильевна,37.5150121218,55.8647648246
153,район Арбат,"121002, г. Москва, Сивцев Вражек пер., д.18",(499) 978-97-58,Государственное бюджетное общеобразовательное учреждение города Москвы «Школа № 1331 «Молодая Иверия»,бюджетное,Перекрест Екатерина Павловна,37.5940771912,55.7482006816
154,Южнопортовый район,"115088, г. Москва, ул. Новоостаповская, д. 10",(495) 674-46-11,Государственное бюджетное образовательное учреждение дополнительного образования города Москвы «Центр творческого развития и гуманитарного образования «Экономика-культура-образование»,бюджетное,Рукавишникова Елена Валентиновна,37.6697749689,55.7180040391
155,Рязанский район,"109125, г. Москва, Васильцовский переулок, д. 1",(499) 796-22-60,Государственное бюджетное общеобразовательное учреждение города Москвы «Школа с углубленным изучением предметов социального профиля № 1386»,бюджетное,Брылева Ирина Юрьевна,37.7487955308,55.7165334266
156,Басманный район,"107078, г. Москва, Новорязанская ул., д. 14, стр. 1",(499) 267-81-74,Государственное бюджетное профессиональное образовательное учреждение города Москвы колледж легкой промышленности,бюджетное,Прохорова Татьяна Викторовна,37.6885425181,55.7780489463
157,район Солнцево,"119618, г. Москва, ул.Главмосстроя, д.28",(495) 435-87-52,Государственное бюджетное общеобразовательное учреждение города Москвы «Школа с углубленным изучением иностранного языка и информационных технологий № 1347»,бюджетное,Задорожная Елена Анатольевна,37.4049902185,55.6549447109
158,район Митино,"125430, г. Москва, Пятницкое шоссе, д. 25, корп. 3",(495) 753-18-11,Государственное бюджетное общеобразовательное учреждение города Москвы «Школа № 1190»,бюджетное,Аниканова Елена Михайловна,37.366279289,55.8470981104
159,район Люблино,"109382, г. Москва, ул. Краснодонская, д. 40",(495) 351-00-00,Государственное бюджетное общеобразовательное учреждение города Москвы «Школа № 1877 «Люблино»,бюджетное,Ибрагимова Ирина Юрьевна,37.7458627733,55.6678940246
160,Дмитровский район,"127411, г. Москва, Дмитровское шоссе, дом 137А",(499) 489-30-76,Государственное бюджетное общеобразовательное учреждение города Москвы «Школа № 1631»,бюджетное,Нилова Вера Андреевна,37.5392436858,55.896479696
161,район Текстильщики,"109129, г. Москва, 11-я ул. Текстильщиков, дом 6",(499) 178-15-12,Государственное бюджетное общеобразовательное учреждение города Москвы «Школа № 484 имени дважды Героя Советского Союза В.И.Попкова»,бюджетное,Федечкина Светлана Петровна,37.7418443232,55.7062978149
162,район Марьино,"109469, г. Москва, ул. Белореченская, д. 47, корп. 1",(495) 346-30-01,Государственное бюджетное общеобразовательное учреждение города Москвы «Лицей № 1547»,бюджетное,Баринов Андрей Юрьевич,37.7769141014,55.6621737884
163,Таганский район,"109544, г. Москва, ул.Рабочая, д.30, стр.1",(495) 678-00-94,Государственное бюджетное образовательное учреждение дополнительного образования города Москвы «Дом детского творчества на Таганке»,бюджетное,Богачева Алла Ивановна,37.6849896119,55.7424112909
164,район Люблино,"109559, г. Москва, ул. Верхние поля, д. 47, корпус 1",(499) 741-78-40,Государственное бюджетное общеобразовательное учреждение города Москвы «Школа № 2012 «Миротворец»,бюджетное,Мягкова Анна Павловна,37.7793317132,55.6674649857
165,район Орехово-Борисово Северное,"115563, г. Москва, Борисовский пр., д.40, корп.2",(495) 394-23-00,Государственное бюджетное общеобразовательное учреждение города Москвы «Школа № 939»,бюджетное,Сухоносова Елена Николаевна,37.7258991228,55.6165636223
166,район Выхино-Жулебино,"109507, г. Москва, Ферганский проезд, д. 10, корпус 5",(495) 377-47-06,Государственное бюджетное общеобразовательное учреждение города Москвы «Школа с углубленным изучением отдельных предметов № 1393 «Школа РОСТ»,бюджетное,Субботина Ирина Николаевна,37.8199836052,55.6979541194
167,район Сокол,"125080, г. Москва, ул. Врубеля, д.6",(499) 198-54-51,Государственное бюджетное общеобразовательное учреждение города Москвы «Школа № 149 имени Героя Советского Союза Ю.Н. Зыкова»,бюджетное,Ларин Алексей Николаевич,37.5005904926,55.8008462953
168,район Восточное Измайлово,"105203, г. Москва, улица 14-я Парковая, д. 4 Б",(495) 465-45-53,Государственное бюджетное профессиональное образовательное учреждение города Москвы «Экономико-технологический колледж № 22»,бюджетное,Барышев Алексей Сергеевич,37.8138703426,55.7939460614
169,район Щукино,"123098, г. Москва, ул. Гамалеи, д. 17, корп. 1",(499) 196-64-18,Государственное бюджетное общеобразовательное учреждение города Москвы «Школа с углубленным изучением английского языка № 1210»,бюджетное,Сехин Сергей Сергеевич,37.4572079313,55.8003788243
170,район Коптево,"125239, г. Москва, ул.Михалковская, д.13А",(499) 154-63-51,Государственное бюджетное общеобразовательное учреждение города Москвы «Школа № 1223 «Лингвистический центр»,бюджетное,Романова Людмила Васильевна,37.5269561172,55.8386239947
171,Головинский район,"125413, г. Москва, Солнечногорский проезд, д. 7",(000) 000-00-00,Государственное бюджетное общеобразовательное учреждение города Москвы «Школа № 1159»,бюджетное,Дубовицкая Людмила Николаевна,37.5101929431,55.8623111829
172,Можайский район,"121471, г. Москва, Можайское ш., д.18, корп.2",(495) 446-26-75,Государственное бюджетное общеобразовательное учреждение города Москвы «Школа № 587»,бюджетное,Тихомирова Екатерина Сергеевна,37.4287829716,55.7218152616
173,район Чертаново Северное,"117587, г. Москва, ул.Кировоградская, д.8Г",(495) 312-92-90,Государственное бюджетное общеобразовательное учреждение города Москвы «Школа № 851»,бюджетное,Ляликова Надежда Константиновна,37.6102677125,55.62979135
174,район Щукино,"123060, г. Москва, ул. Маршала Рыбалко, д. 14",(499) 194-11-44,Государственное бюджетное общеобразовательное учреждение города Москвы «Немецкая школа № 1212»,бюджетное,Ким Мария Валерьевна,37.4869079539,55.7993442066
175,район Филёвский Парк,"121601, г. Москва, Филевский бульвар, д.3, стр.1",(495) 738-60-64,Государственное бюджетное общеобразовательное учреждение города Москвы «Школа № 1114»,бюджетное,Ястребова Александра Петровна,37.4846347397,55.7648469384
176,район Крылатское,"121614, г. Москва, ул.Крылатская, д.25",(495) 413-33-32,Государственное бюджетное общеобразовательное учреждение города Москвы «Школа № 1471»,бюджетное,Шушковская Алла Абрамовна,37.413960631,55.7709766454
177,район Ясенево,"117574, г. Москва, улица Голубинская, дом 5, корпус 4",(495) 421-47-88,Государственное бюджетное образовательное учреждение города Москвы средняя общеобразовательная школа № 2103,бюджетное,Ильина Наталья Павловна,37.5209324818,55.6074893697
178,район Южное Тушино,"125363, г. Москва, ул. Аэродромная, д. 9",(495) 948-63-00,Государственное бюджетное общеобразовательное учреждение города Москвы «Школа № 2097»,бюджетное,Пискарева Галина Викторовна,37.4212360679,55.8475656645
179,район Покровское-Стрешнево,"125362, г. Москва, ул. Вишневая, д. 20, корп. 1",(495) 490-28-81,Государственное бюджетное общеобразовательное учреждение города Москвы «Школа с углублённым изучением английского языка № 1285»,бюджетное,Алпатова Ярослава Дмитриевна,37.4503815353,55.8261988032
180,район Очаково-Матвеевское,"119361, г. Москва, ул. Б.Очаковская, д.42, корпус 2.",(495) 430-66-18,Государственное бюджетное общеобразовательное учреждение города Москвы «Школа № 2025»,бюджетное,Малахова Ирина Алексеевна,37.4556478125,55.6756689741
181,Пресненский район,"123056, г. Москва, Б.Кондратьевский пер., д.3",(499) 252-26-24,Государственное бюджетное общеобразовательное учреждение города Москвы «Школа № 1240 «Мультипрофильный образовательный комплекс «Пресненский»,бюджетное,Щипкова Татьяна Юрьевна,37.5693318843,55.767556976
182,район Вешняки,"111402, г. Москва, ул. Кетчерская, д.8А",(495) 370-56-10,Государственное бюджетное общеобразовательное учреждение города Москвы «Вешняковская лингвистическая гимназия № 1389»,бюджетное,Кругляков Константин Михайлович,37.8280901824,55.7427569664
183,Алтуфьевский район,"127410, г. Москва, Путевой проезд, дом 10 ""А""",(499) 900-90-30,Государственное бюджетное образовательное учреждение города Москвы средняя общеобразовательная школа № 305,бюджетное,Иванова Ольга Владимировна,37.5731377912,55.881879139
184,район Филёвский Парк,"121096, г. Москва, ул. Кастанаевская, д.10",(499) 142-05-84,Государственное бюджетное общеобразовательное учреждение города Москвы «Школа № 590»,бюджетное,Беспалов Алексей Викторович,37.495949209,55.7406956764
185,район Ясенево,"117593, г. Москва, Литовский бульвар, дом 17, корпус 4",(495) 426-85-01,Государственное бюджетное общеобразовательное учреждение города Москвы «Школа № 1103 имени Героя Российской Федерации А.В. Соломатина»,бюджетное,Сокур Мария Евгеньевна,37.5523023077,55.6043059014
186,район Хамовники,"119121, г. Москва, ул.Тимура Фрунзе, д.28",(499) 246-77-62,Государственное бюджетное профессиональное образовательное учреждение города Москвы «Политехнический техникум № 2»,бюджетное,Петрушкевич Алексей Вадимович,37.5672649416,55.7344537292
187,район Царицыно,"115304, г. Москва, ул.Ереванская, д.20, к.2",(499) 320-48-27,Государственное бюджетное общеобразовательное учреждение города Москвы «Школа с углубленным изучением отдельных предметов № 1466 имени Надежды Рушевой»,бюджетное,Чугунова Татьяна Станиславовна,37.6768453536,55.6320126068
188,Гагаринский район,"119296, г. Москва, Университетский проспект, дом 5",(495) 930-62-30,Государственное бюджетное общеобразовательное учреждение города Москвы «Школа № 2086»,бюджетное,Орлова Елена Владиславовна,37.5459372852,55.6906884052
189,Ломоносовский район,"119311, г. Москва, ул.Крупской, д.12",(499) 133-67-77,Государственное бюджетное образовательное учреждение города Москвы гимназия № 1514,бюджетное,Белова Анна Викторовна,37.5270225898,55.6850460659
190,район Раменки,"119285, г. Москва, ул.Пырьева, д.11",(499) 143-09-95,Государственное бюджетное образовательное учреждение города Москвы средняя общеобразовательная школа № 74,бюджетное,Афанасьев Александр Николаевич,37.5228755271,55.7282480165
191,район Кунцево,"121552, г. Москва, ул.Оршанская, д. 14, строения 1,2,3",(499) 141-45-01,Государственное казенное общеобразовательное учреждение города Москвы «Кадетская школа-интернат № 11 «Московский дипломатический кадетский корпус»,бюджетное,Бацюсь Василий Тимофеевич,37.4084479799,55.7417070954
192,район Северное Тушино,"125481, г. Москва, ул. Фомичевой, д. 1, корп. 1",(000) 000-00-00,Государственное бюджетное общеобразовательное учреждение города Москвы «Лицей № 1571»,бюджетное,Варгамян Марина Викторовна,37.4386661767,55.8601333987
193,район Савёлки,"124482, г. Москва, Зеленоград, корп. 314",(499) 734-16-54,Государственное бюджетное общеобразовательное учреждение города Москвы «Школа № 609»,бюджетное,Шкутова Светлана Викторовна,37.2163782237,55.9945999698
194,район Фили-Давыдково,"121352, г. Москва, ул.Кременчугская, д.46",(499) 445-06-64,Государственное бюджетное общеобразовательное учреждение города Москвы «Школа № 97»,бюджетное,Мальчевская Ирина Витальевна,37.4580000191,55.6943414838
195,Нижегородский район,"109052, г. Москва, ул.Нижегородская, д.64",(495) 676-78-61,Государственное бюджетное общеобразовательное учреждение города Москвы «Школа № 1222 имени Маршала Советского Союза И.Х. Баграмяна»,бюджетное,Пузанова Надежда Даниловна,37.7203580101,55.7335459935
196,район Лефортово,"111024, г. Москва, Авиамоторная ул, д.42",(495) 673-10-64,Государственное бюджетное общеобразовательное учреждение города Москвы «Школа с углубленным изучением английского языка № 1228»,бюджетное,Зинкевич Ирина Витальевна,37.70799348,55.7637955558
197,район Метрогородок,"107143, г. Москва, Открытое шоссе, д. 23А",(499) 167-60-45,Государственное бюджетное общеобразовательное учреждение города Москвы «Лицей № 1795 «Лосиноостровский»,бюджетное,Сетежева Валентина Валериевна,37.7545583679,55.8265110789
198,район Люблино,"109559, г. Москва, ул. Белореченская, д. 8",(495) 359-67-01,Государственное бюджетное общеобразовательное учреждение города Москвы «Лицей № 2010 имени Героя Советского Союза М.П. Судакова»,бюджетное,Бронзес Татьяна Евгеньевна,37.7502203748,55.671001142
199,район Богородское,"107258, г. Москва, ул. 3-я Гражданская, д.64",(495) 964-88-01,Государственное бюджетное общеобразовательное учреждение города Москвы «Гимназия № 1797 «Богородская»,бюджетное,Евдокимов Евгений Олегович,37.7091583527,55.8074581764
200,Обручевский район,"119421, г. Москва, ул.Новаторов, д.34, корп.1",(499) 739-84-89,Государственное бюджетное общеобразовательное учреждение города Москвы «Школа № 9»,бюджетное,Сахарова Ирина Николаевна,37.5231480418,55.6633747587
201,Донской район,"109443, г. Москва, Есенинский бульвар, дом 12, корпус 2",(499) 127-14-65,Государственное бюджетное учреждение города Москвы «Городской психолого-педагогический центр Департамента образования города Москвы»,бюджетное,Олтаржевская Любовь Евгеньевна,37.5162805388,55.6089576256
202,район Кузьминки,"109457, г. Москва, ул. Федора Полетаева, д.2, корп.7",(499) 175-83-16,Государственное бюджетное профессиональное образовательное учреждение города Москвы «Педагогический колледж № 10»,бюджетное,Зимнухова Татьяна Юрьевна,37.7701240958,55.7136160034
203,район Марьино,"109369, г. Москва, ул. Перерва, дом 44",(495) 349-12-61,Государственное бюджетное общеобразовательное учреждение города Москвы «Школа № 2087 «Многопрофильный образовательный комплекс «Открытие»,бюджетное,Спиридонова Елена Сергеевна,37.7360566832,55.6521359613
204,район Раменки,"119607, г. Москва, Мичуринский проспект, д. 23",(495) 931-36-36,Государственное бюджетное общеобразовательное учреждение города Москвы «Школа № 1498 «Московская Международная Школа»,бюджетное,Лукьянова Наталья Геннадьевна,37.5067604195,55.6948175836
205,район Чертаново Центральное,"117519, г. Москва, ул.Чертановская, д.27",(495) 314-62-42,Государственное бюджетное общеобразовательное учреждение города Москвы «Школа № 1173»,бюджетное,Родина Ирина Алексеевна,37.6022625095,55.6156060234
206,район Матушкино,"124482, г. Москва, Зеленоград, корп. 142",(499) 736-00-26,Государственное бюджетное общеобразовательное учреждение города Москвы «Школа № 842»,бюджетное,Макарова Ольга Евгеньевна,37.2119815211,56.0062752268
207,район Люблино,"109380, г. Москва, ул. Степана Шутова, д. 8, кор. 3",(499) 784-02-60,Государственное бюджетное общеобразовательное учреждение города Москвы «Школа № 913 имени Героя Советского Союза С.Ф. Шутова»,бюджетное,Клочихин Михаил Станиславович,37.8102345869,55.6749454434
208,Войковский район,"105425, г. Москва, ул. 5-я Парковая, дом 51",(495) 452-27-84,Государственное бюджетное образовательное учреждение дополнительного профессионального образования города Москвы «Центр военно-патриотического и гражданского воспитания»,бюджетное,Мельниченко Игорь Иннокентьевич,37.6067110973,55.7194166484
209,район Коньково,"117437, г. Москва, ул. Профсоюзная, дом 118-Б",(495) 335-92-77,Государственное бюджетное образовательное учреждение города Москвы средняя общеобразовательная школа № 113,бюджетное,Сухорукова Нина Леонидовна,37.5192772196,55.6405765105
210,район Орехово-Борисово Южное,"115583, г. Москва, ул. Воронежская, д.26, корп.4",(495) 398-50-89,Государственное бюджетное общеобразовательное учреждение города Москвы «Школа № 896»,бюджетное,Матвеенкова Елена Николаевна,37.7345809414,55.6081651794
211,район Левобережный,"125565, г. Москва, ул. Ленинградское шоссе, д. 94а",(499) 457-70-71,Государственное бюджетное общеобразовательное учреждение города Москвы «Школа № 167 имени Маршала Л.А. Говорова»,бюджетное,Момот Карина Робертовна,37.4780280705,55.8619020215
212,район Измайлово,"105043, г. Москва, Первомайская улица, 65",(495) 465-28-11,Государственное бюджетное общеобразовательное учреждение города Москвы «Измайловская гимназия № 1508»,бюджетное,Меламуд Вадим Эмильевич,37.8018974953,55.7964926591
213,район Люблино,"109263, г. Москва, ул. Шкулева, д. 13/25, корп. 2",(499) 178-56-61,Государственное бюджетное профессиональное образовательное учреждение города Москвы «Многопрофильный центр образования»,бюджетное,Востриков Сергей Петрович,37.7422739963,55.6718293762
214,Ярославский район,"129337, г. Москва, ул.Федоскинская, д.4",(499) 182-08-10,Государственное бюджетное общеобразовательное учреждение города Москвы «Школа с углубленным изучением английского языка № 1374»,бюджетное,Бриткевич Маргарита Сергеевна,37.7039575226,55.8706840878
215,район Крюково,"124683, г. Москва, Зеленоград, корп. 1555",(499) 717-92-44,Государственное бюджетное общеобразовательное учреждение города Москвы «Школа № 1739»,бюджетное,Прусакова Татьяна Николаевна,37.1569411877,55.9796355294
216,Академический район,"117036, г. Москва, ул. Гримау, д.8",(499) 126-21-58,Государственное бюджетное общеобразовательное учреждение города Москвы «Гимназия № 45 имени Л.И. Мильграма»,бюджетное,Шнейдер Михаил Яковлевич,37.5863290972,55.6919246775
217,район Крюково,"124683, г. Москва, Зеленоград, корп. 1556",(499) 717-03-67,Государственное бюджетное общеобразовательное учреждение города Москвы «Школа № 1194»,бюджетное,Ващилин Анатолий Сергеевич,37.1571479068,55.982201096
218,район Нагатинский Затон,"115407, г. Москва, ул.Затонная, д.7, корп.3",(499) 618-91-35,Государственное бюджетное общеобразовательное учреждение города Москвы «Школа № 492»,бюджетное,Разоренова Жанна Николаевна,37.6808171635,55.6795729163
219,район Хорошёво-Мнёвники,"123308, г. Москва, ул. Мневники, д. 4",(967) 070-72-98,Государственное бюджетное профессиональное образовательное учреждение города Москвы «Колледж малого бизнеса № 48»,бюджетное,Радов Виктор Петрович,37.5006645129,55.7781894097
220,район Чертаново Северное,"117208, г. Москва, ул.Чертановская, д.1А, корп.3",(495) 316-11-36,Государственное бюджетное общеобразовательное учреждение города Москвы «Школа № 1179»,бюджетное,Холопова Анастасия Николаевна,37.6136124865,55.638191323
221,район Черёмушки,"119421, г. Москва, Ленинский пр-т, д.97, корп.2,3",(499) 120-61-96,Государственное бюджетное общеобразовательное учреждение города Москвы «Специальная (коррекционная) школа-интернат VIII вида № 108»,бюджетное,Бажанова Галина Павловна,37.5249535707,55.6714681014
222,район Арбат,"121069, г. Москва, Большая Молчановка, д. 26-28",(495) 691-64-41,Государственное бюджетное общеобразовательное учреждение города Москвы «Школа с углубленным изучением отдельных предметов № 1234»,бюджетное,Волошко Ирина Григорьевна,37.590129592,55.7537294295
223,район Перово,"111524, г. Москва, ул.Плющева, д.11А",(495) 309-58-47,Государственное бюджетное общеобразовательное учреждение города Москвы «Школа № 2126 «Перово»,бюджетное,Щеголева Наталия Борисовна,37.7589857418,55.743239177
224,район Зябликово,"115573, г. Москва, Ореховый пр., д.17, корп.2",(495) 395-03-77,Государственное бюджетное общеобразовательное учреждение города Москвы «Школа № 534»,бюджетное,Шестакова Дина Валентиновна,37.7387023914,55.6232495017
225,район Марьино,"107341, г. Москва, Перервинский бульвар, д. 16, корп. 1",(495) 346-45-51,Государственное бюджетное общеобразовательное учреждение города Москвы школа № 1959 «Дети мира»,бюджетное,Асирян Михаил Армаисович,37.7686080446,55.6556269044
226,район Печатники,"109548, г. Москва, ул. Полбина, д. 18",(495) 353-50-38,Государственное бюджетное общеобразовательное учреждение города Москвы «Школа № 773 «Центр образования «Печатники»,бюджетное,Соловьев Андрей Сергеевич,37.7293088246,55.6882615634
227,Нагорный район,"117452, г. Москва, Черноморский б-р, д.6",(499) 610-77-66,Государственное бюджетное общеобразовательное учреждение города Москвы «Школа № 1862»,бюджетное,Ульянов Александр Ильич,37.6177019279,55.6508094721
228,район Нагатинский Затон,"115470, г. Москва, Судостроительная ул., д.10, корп.1",(499) 612-34-19,Государственное бюджетное общеобразовательное учреждение города Москвы «Школа № 463 имени Героя Советского Союза Д.Н.Медведева»,бюджетное,Рузина Лидия Владимировна,37.6739547616,55.6781147638
229,Пресненский район,"123100, г. Москва, ул.2-я Черногрязская, д.7",(499) 256-37-65,Государственное бюджетное общеобразовательное учреждение города Москвы «Школа № 2055 имени Героев Советского Союза Анатолия Живова и Юрия Костикова»,бюджетное,Шелкова Наталия Михайловна,37.5380689499,55.7635147632
230,район Котловка,"117036, г. Москва, улица Дмитрия Ульянова, дом 26",(499) 127-69-95,Государственное бюджетное профессиональное образовательное учреждение города Москвы «Образовательный комплекс «Юго-Запад»,бюджетное,Мадилов Сергей Павлович,37.5508659584,55.687717793
231,район Братеево,"115612, г. Москва, ул.Братеевская, д.8, корп.2",(495) 342-33-00,Государственное бюджетное общеобразовательное учреждение города Москвы «Школа № 1034»,бюджетное,Уколова Елена Васильевна,37.7592788474,55.6320072309
232,район Восточное Дегунино,"127540, г. Москва, Керамический пр. д. 47А",(499) 900-00-98,Государственное бюджетное общеобразовательное учреждение города Москвы «Школа с углубленным изучением отдельных предметов № 1794»,бюджетное,Грива Игорь Анатольевич,37.5652323979,55.8739378635
233,Алексеевский район,"129626, г. Москва, ул.Павла Корчагина, д.18",(495) 683-10-38,Государственное бюджетное общеобразовательное учреждение города Москвы «Гимназия № 1503»,бюджетное,Цимбалюк Стелла Николаевна,37.6623166734,55.8185772468
234,район Ясенево,"119334, г. Москва, ул. Косыгина, д.17",(495) 426-31-88,Государственное бюджетное профессиональное образовательное учреждение города Москвы «Воробьевы горы»,бюджетное,Шашков Андрей Анатольевич,37.5509937522,55.6967046906
235,район Братеево,"115408, г. Москва, ул.Алма-Атинская д.9, корп.3",(495) 341-83-77,Государственное бюджетное общеобразовательное учреждение города Москвы «Школа № 975»,бюджетное,Чинилина Ирина Викторовна,37.774141845,55.6401977519
236,район Южное Бутово,"117041, г. Москва, ул. Адмирала Лазарева, д. 62, корп.2",(495) 714-20-09,Государственное бюджетное общеобразовательное учреждение города Москвы «Школа № 1492»,бюджетное,Аникина Татьяна Ивановна,37.5049988883,55.5399225198
237,район Кузьминки,"109457, г. Москва, ул.Зеленодольская, д.32, корп.6",(499) 172-06-05,Государственное бюджетное общеобразовательное учреждение города Москвы «Лицейско-гимназический комплекс на Юго-Востоке»,бюджетное,Инглези Алла Александровна,37.7642134456,55.7119129571
238,район Выхино-Жулебино,"109542, г. Москва, Рязанский проспект, д. 82, корп. 4",(495) 372-05-22,Государственное бюджетное общеобразовательное учреждение города Москвы «Школа с углубленным изучением отдельных предметов № 1363»,бюджетное,Лавриненко Елена Валерьевна,37.8145848433,55.7095074816
239,Бескудниковский район,"127474, г. Москва, Дубнинская улица, дом 41",(499) 488-00-85,Государственное бюджетное общеобразовательное учреждение города Москвы «Школа № 183»,бюджетное,Исаева Елена Валентиновна,37.552369425,55.8754263998
240,Лосиноостровский район,"129346, г. Москва, Янтарный пр., д.2",(495) 474-27-62,Государственное бюджетное общеобразовательное учреждение города Москвы «Школа с углубленным изучением английского языка № 1381»,бюджетное,Одегова Галина Николаевна,37.704332853,55.8856475972
241,район Зюзино,"117149, г. Москва, улица Азовская, дом 2, корпус 2",(495) 123-65-15,Государственное бюджетное общеобразовательное учреждение города Москвы «Школа с углубленным изучением английского языка № 1279»,бюджетное,Анисимова Раиса Алексеевна,37.594767696,55.6577018746
242,район Преображенское,"107076, г. Москва, 1-й Зборовский переулок, д. 3",(495) 651-92-95,Государственное автономное образовательное учреждение дополнительного профессионального образования города Москвы «Московский центр технологической модернизации образования»,бюджетное,Добряков Александр Анатольевич,37.7054207525,55.8004734013
243,район Тёплый Стан,"117133, г. Москва, ул.Академика Варги, д.34",(495) 339-39-66,Государственное бюджетное общеобразовательное учреждение города Москвы «Школа № 1101»,бюджетное,Варлен Нина Витальевна,37.4725766659,55.6333113338
244,Донской район,"115419, г. Москва, ул. Академика Петровского, д.10",(499) 236-42-83,Государственное бюджетное профессиональное образовательное учреждение города Москвы «Строительный техникум № 30»,бюджетное,Востриков Сергей Петрович,37.6424822035,55.5939671253
245,район Южное Бутово,"117624, г. Москва, ул.Скобелевская, д.28",(495) 716-78-18,Государственное бюджетное общеобразовательное учреждение города Москвы «Школа № 1065»,бюджетное,Мухаметзянова Мария Алексеевна,37.5539962664,55.5449899628
246,район Арбат,"121069, г. Москва, ул. Поварская, д. 14",(000) 000-00-00,Государственное бюджетное общеобразовательное учреждение города Москвы «Школа № 91»,бюджетное,Красавина Наталия Ювенальевна,37.5962916523,55.7541416951
247,Даниловский район,"115162, г. Москва, г, Хавская ул, 5",(000) 000-00-00,Государственное бюджетное общеобразовательное учреждение города Москвы «Школа № 600»,бюджетное,Толкачева Ирина Ашеровна,37.6139559968,55.7179257298
248,район Чертаново Северное,"117648, г. Москва, микрорайон Северное Чертаново корп. 809",(495) 311-35-03,Государственное бюджетное общеобразовательное учреждение города Москвы «Лицей № 1158»,бюджетное,Киркова Татьяна Григорьевна,37.5876269427,55.6321668988
249,район Зюзино,"117303, г. Москва, ул. Одесская, дом 16, корп. 2",(499) 723-10-09,Государственное бюджетное общеобразовательное учреждение города Москвы «Школа с углубленным изучением восточных языков № 2042 имени Лазаревых»,бюджетное,Галоян Седа Вагановна,37.5884594631,55.6567414003
250,район Гольяново,"107497, г. Москва, ул. Новосибирская, д. 3 А",(495) 468-46-11,Государственное бюджетное общеобразовательное учреждение города Москвы «Школа № 1076»,бюджетное,Рощина Наталья Анатольевна,37.8187232379,55.8136595212
251,район Южное Медведково,"127642, г. Москва, улица Заповедная, дом 22",(499) 186-38-92,Государственное бюджетное общеобразовательное учреждение города Москвы «Школа № 956»,бюджетное,Балакирева Елена Натановна,37.6428996781,55.8680120258
252,район Восточный,"105173, г. Москва, пос. Акулово, д. 43А",(495) 617-63-84,Государственное бюджетное общеобразовательное учреждение города Москвы «Школа № 448»,бюджетное,Яшина Нина Владимировна,37.7927941449,56.0034099463
253,район Митино,"125368, г. Москва, ул. Барышиха, д. 17, корп. 1",(495) 754-14-61,Государственное бюджетное общеобразовательное учреждение города Москвы «Школа с углубленным изучением английского языка № 1944»,бюджетное,Соловатова Анися Хайдеровна,37.3438668438,55.8466981818
254,район Бирюлёво Восточное,"115404, г. Москва, ул.Липецкая, д.2, корп.13",(495) 327-50-91,Государственное бюджетное профессиональное образовательное учреждение города Москвы «Финансовый колледж № 35»,бюджетное,Иванова Елена Анатольевна,37.6678679523,55.6050634593
255,район Строгино,"123592, г. Москва, ул. Кулакова, д.12, к. 2",(495) 758-27-27,Государственное бюджетное общеобразовательное учреждение города Москвы «Школа № 89 имени А.П. Маресьева»,бюджетное,Докалюк Светлана Николаевна,37.3938252193,55.8095001321
256,район Отрадное,"127566, г. Москва, Северный бульвар, д. 1 а",(000) 000-00-00,Государственное бюджетное общеобразовательное учреждение города Москвы «Школа с углубленным изучением английского языка № 1411»,бюджетное,Овчинникова Нина Николаевна,37.6089222999,55.8691013391
257,Дмитровский район,"127644, г. Москва, Вагоноремонтная улица, дом 15-А",(495) 485-12-11,Государственное бюджетное общеобразовательное учреждение города Москвы «Школа № 668 имени Героя Советского Союза В.П. Кислякова»,бюджетное,Нилова Вера Андреевна,37.5272006918,55.8941916661
258,район Ховрино,"125502, г. Москва, Петрозаводская ул., д. 19А",(499) 459-58-57,Государственное бюджетное образовательное учреждение города Москвы средняя общеобразовательная школа № 597,бюджетное,Зайцева Елена Вениаминовна,37.4904862095,55.8638859276
259,район Капотня,"109649, г. Москва, Капотня, 5 Квартал, д. 28",(495) 355-41-11,Государственное бюджетное общеобразовательное учреждение города Москвы «Школа № 1996»,бюджетное,Адамич Анжела Витальевна,37.7939830652,55.6347606233
260,район Силино,"124575, г. Москва, Зеленоград, корп. 1016",(499) 731-77-01,Государственное бюджетное общеобразовательное учреждение города Москвы «Школа № 1692»,бюджетное,Ясинова Анна Владимировна,37.1742005606,55.9884167057
261,район Тропарёво-Никулино,"119602, г. Москва, ул.Никулинская, д.5",(499) 792-03-01,Государственное бюджетное общеобразовательное учреждение города Москвы «Школа № 1741»,бюджетное,Панкин Павел Павлович,37.4524931828,55.6666105339
262,район Москворечье-Сабурово,"115522, г. Москва, ул.Кантемировская, д.22, корп.6",(499) 324-61-45,Государственное бюджетное общеобразовательное учреждение города Москвы «Школа № 2000»,бюджетное,Шмачкова Татьяна Михайловна,37.6518836043,55.6433574277
263,район Сокол,"125252, г. Москва, ул. Сальвадора Альенде, д. 9",(499) 157-67-12,Государственное бюджетное общеобразовательное учреждение города Москвы «Школа с углубленным изучением французского языка № 1251 имени генерала Шарля де Голля»,бюджетное,Кравец Татьяна Викторовна,37.5069552268,55.7943770828
264,район Хамовники,"119034, г. Москва, 2-й Обыденский пер., д.9",(495) 637-76-15,Государственное бюджетное образовательное учреждение города Москвы гимназия № 1529 имени А.С.Грибоедова,бюджетное,Соловьева Марина Анатольевна,37.5955286719,55.7472744346
265,район Митино,"125464, г. Москва, Новотушинский проезд, д. 8, корп. 2",(495) 759-37-76,Государственное бюджетное общеобразовательное учреждение города Москвы «Гимназия № 1538»,бюджетное,Мухина Наталья Борисовна,37.386426946,55.8427497601
266,район Братеево,"115612, г. Москва, ул.Ключевая, д.6, корп.2",(495) 342-51-51,Государственное бюджетное общеобразовательное учреждение города Москвы «Школа № 867»,бюджетное,Островская Людмила Тихоновна,37.7559561115,55.6375018103
267,район Северное Измайлово,"105425, г. Москва, Щелковское ш., д.26А",(499) 164-47-81,Государственное бюджетное общеобразовательное учреждение города Москвы «Школа с углубленным изучением английского языка № 2033»,бюджетное,Акулова Ирина Анатольевна,37.7798317587,55.8083273471
268,район Москворечье-Сабурово,"115304, г. Москва, ул.Кошкина, д.13, корп.2",(499) 323-00-17,Государственное бюджетное общеобразовательное учреждение города Москвы школа с углубленным изучением отдельных предметов № 982 имени маршала бронетанковых войск П.П. Полубоярова,бюджетное,Мареичева Наталья Александровна,37.6825221321,55.6349330896
269,район Замоскворечье,"115054, г. Москва, ул.Дубининская, д.42",(499) 236-74-10,Государственное бюджетное общеобразовательное учреждение города Москвы «Школа № 627 имени Генерала Д.Д. Лелюшенко»,бюджетное,Павлюченко Людмила Васильевна,37.6277319184,55.7262545065
270,район Марьина Роща,"129226, г. Москва, 2-ой Сельскохозяйственный проезд, д. 4, корп. 1",(495) 618-01-00,Государственное автономное образовательное учреждение высшего образования города Москвы «Московский городской педагогический университет»,автономное,Реморенко Игорь Михайлович,37.5420717667,55.6816812158
271,район Южное Бутово,"117042, г. Москва, улица Поляны, дом 53",(495) 716-19-90,Государственное бюджетное общеобразовательное учреждение города Москвы «Школа № 1883 «Бутово»,бюджетное,Зерниченко Лариса Евгеньевна,37.5533008452,55.544394244
272,район Ново-Переделкино,"119634, г. Москва, ул.Шолохова, д.9",(495) 732-96-80,Государственное бюджетное общеобразовательное учреждение города Москвы «Школа № 1467»,бюджетное,Беляева Татьяна Владимировна,37.3431333906,55.6369989153
273,район Перово,"111141, г. Москва, ул. Перовская, д.37",(495) 306-68-40,Государственное бюджетное общеобразовательное учреждение города Москвы «Школа № 920»,бюджетное,Глушкова Ирина Кузьминична,37.7787743022,55.7486273747
274,район Текстильщики,"109125, г. Москва, ул. Васильцовский стан, д 6.",(499) 754-13-67,Государственное бюджетное общеобразовательное учреждение города Москвы «Лицей № 1367»,бюджетное,Пашков Андрей Анатольевич,37.7378565106,55.7144978954
275,район Лианозово,"127576, г. Москва, улица Угличская, дом 6 А",(499) 200-62-29,Государственное бюджетное общеобразовательное учреждение города Москвы «Центр образования № 1449 имени Героя Советского Союза М.В. Водопьянова»,бюджетное,Быховская Фаина Леонидовна,37.569891081,55.8951649009
276,район Щукино,"123098, г. Москва, ул. Маршала Новикова, д. 13",(499) 193-51-58,Государственное бюджетное общеобразовательное учреждение города Москвы «Школа № 1874»,бюджетное,Овсянникова Татьяна Михайловна,37.4713873732,55.802582806
277,Даниловский район,"115191, г. Москва, ул.Малая Тульская, д.15",(499) 235-74-62,Государственное бюджетное общеобразовательное учреждение города Москвы «Школа № 547»,бюджетное,Белоусова Ольга Андреевна,37.6164104829,55.708654115
278,район Коньково,"117485, г. Москва, Профсоюзная ул., дом 96 Б",(495) 336-65-33,Государственное бюджетное общеобразовательное учреждение города Москвы «Школа № 170 имени А.П.Чехова»,бюджетное,Киселев Виктор Евгеньевич,37.5247570246,55.6512638955
279,район Новогиреево,"111396, г. Москва, Союзный просп., д.2",(495) 303-35-12,Государственное бюджетное образовательное учреждение города Москвы средняя общеобразовательная школа № 2093 имени А.Н. Савельева,бюджетное,Бойко Римма Владимировна,37.8036931536,55.7515519352
280,район Проспект Вернадского,"119415, г. Москва, пр-т Вернадского, д.57",(495) 936-41-20,Государственное бюджетное общеобразовательное учреждение города Москвы «Школа № 323»,бюджетное,Копылова Светлана Викторовна,37.508808734,55.667268053
281,Ломоносовский район,"117335, г. Москва, улица Архитектора Власова, дом 19а",(499) 134-80-21,Государственное бюджетное общеобразовательное учреждение города Москвы «Школа с углубленным изучением иностранных языков № 1205»,бюджетное,Баскаков Андрей Николаевич,37.5585616456,55.6773275506
282,Бескудниковский район,"127474, г. Москва, Бескудниковский бульвар, д. 29",(499) 488-32-75,Государственное бюджетное общеобразовательное учреждение города Москвы «Школа № 656 имени А.С. Макаренко»,бюджетное,Минигалина Анастасия Николаевна,37.5552747357,55.8676424938
283,Таганский район,"109147, г. Москва, Нижегородская улица, дом 3",(495) 623-14-69,Государственное бюджетное учреждение города Москвы «Центр дополнительного образования «Лаборатория путешествий»,бюджетное,Шпаро Матвей Дмитриевич,37.6756053738,55.7394992543
284,район Замоскворечье,"115054, г. Москва, ул.Бахрушина, д.17, стр.1",(495) 951-01-44,Государственное бюджетное образовательное учреждение города Москвы центр детского творчества «Москворечье»,бюджетное,Колиниченко Татьяна Владимировна,37.6358663723,55.7352742993
285,Тимирязевский район,"127411, г. Москва, ул. Учинская, д. 10",(499) 977-45-91,Государственное бюджетное образовательное учреждение дополнительного образования города Москвы «Центр развития творчества детей и юношества «Гермес»,бюджетное,Лыков Алексей Алексеевич,37.5723029633,55.8422252473
286,район Кузьминки,"109462, г. Москва, Волгоградский проспект, д.66, корпус 4",(499) 178-20-71,Государственное бюджетное общеобразовательное учреждение города Москвы «Школа № 641 имени Сергея Есенина»,бюджетное,Голоднова Лариса Васильевна,37.7568069703,55.7047831882
287,Тверской район,"127055, г. Москва, Тихвинский пер., д.3",(499) 978-42-44,Государственное бюджетное общеобразовательное учреждение города Москвы «Многопрофильный лицей № 1501»,бюджетное,Рахимова Наталия Турсуновна,37.5961066181,55.7879633791
288,район Ивановское,"111555, г. Москва, улица Сталеваров, дом 10 А",(495) 300-07-04,Государственное бюджетное общеобразовательное учреждение города Москвы «Гимназия № 1504»,бюджетное,Шарай Надежда Андреевна,37.8380150732,55.7657833447
289,район Орехово-Борисово Северное,"115569, г. Москва, Шипиловский пр-д, д.37, корп.2",(495) 391-94-09,Государственное бюджетное общеобразовательное учреждение города Москвы «Школа № 878»,бюджетное,Сысоева Людмила Анатольевна,37.697836128,55.6140141728
290,Войковский район,"125171, г. Москва, ул. 3-я Радиаторская, д.8А",(499) 150-85-62,Государственное бюджетное общеобразовательное учреждение города Москвы «Школа № 2099»,бюджетное,Брянцева Оксана Николаевна,37.4971778756,55.8163131685
291,район Бирюлёво Западное,"117546, г. Москва, ул. Медынская, д. 9А",(495) 383-78-87,Государственное бюджетное общеобразовательное учреждение города Москвы «Школа № 933»,бюджетное,Абдуллаева Светлана Викторовна,37.6526597469,55.5828397527
292,район Лефортово,"111033, г. Москва, Танковый проезд, д. 3А",(495) 362-22-61,Государственное бюджетное общеобразовательное учреждение города Москвы «Школа с углубленным изучением отдельных предметов № 415»,бюджетное,Говорущенко Матвей Станиславович,37.6772654175,55.7539002418
293,Бабушкинский район,"129344, г. Москва, ул.Радужная, д.7",(495) 471-42-33,Государственное бюджетное общеобразовательное учреждение города Москвы «Школа № 281»,бюджетное,Вологина Елена Станиславовна,37.6772401251,55.8668740739
294,район Очаково-Матвеевское,"119501, г. Москва, ул.Веерная, д.5, корп.3",(495) 442-90-23,Государственное бюджетное общеобразовательное учреждение города Москвы «Школа № 814»,бюджетное,Иванцов Максим Николаевич,37.4620723433,55.7080391816
295,район Дорогомилово,"121059, г. Москва, ул.Брянская, д.10",(499) 240-52-63,Государственное бюджетное общеобразовательное учреждение города Москвы «Школа № 1465 имени адмирала Н.Г. Кузнецова»,бюджетное,Луцишин Артур Васильевич,37.5418198511,55.7420512887
296,район Ново-Переделкино,"119620, г. Москва, ул. Авиаторов, дом 8, корпус 2",(495) 732-94-27,Государственное бюджетное общеобразовательное учреждение города Москвы «Гимназия № 1542»,бюджетное,Сахарова Светлана Николаевна,37.4066601887,55.6407049781
297,район Бирюлёво Восточное,"115372, г. Москва, ул.Лебедянская, д.16",(495) 329-86-60,Государственное бюджетное общеобразовательное учреждение города Москвы «Школа № 947»,бюджетное,Кузина Марина Юрьевна,37.6754609796,55.5824374063
298,Тимирязевский район,"127238, г. Москва, ул.3-й Нижнелихоборский пр-д, д.6А",(499) 488-70-10,Государственное бюджетное общеобразовательное учреждение города Москвы «Школа с углубленным изучением английского языка № 1213»,бюджетное,Селиверстова Анна Евгеньевна,37.5766012993,55.8398036268
299,Войковский район,"125212, г. Москва, Ленинградское шоссе, д. 27",(499) 150-86-68,Государственное бюджетное общеобразовательное учреждение города Москвы «Школа с углубленным изучением английского языка № 1250»,бюджетное,Шевченко Ольга Геннадьевна,37.4853175641,55.8298486328
300,район Некрасовка,"111674, г. Москва, ул.Вольская 1-я, д.22, корп.2",(495) 706-83-33,Государственное бюджетное общеобразовательное учреждение города Москвы «Школа с углубленным изучением отдельных предметов № 1366»,бюджетное,Львова Елена Васильевна,37.9248906621,55.6827780701
301,Ломоносовский район,"117393, г. Москва, ул. Академика Пилюгина, дом 18, корпус 1",(499) 134-45-17,Государственное бюджетное общеобразовательное учреждение города Москвы «Школа № 117»,бюджетное,Бабурина Ирина Алексеевна,37.5378476771,55.6727448499
302,район Царицыно,"115516, г. Москва, ул.Веселая, д.12",(495) 321-16-77,Государственное бюджетное общеобразовательное учреждение города Москвы «Школа № 870»,бюджетное,Поморина Инна Вячеславовна,37.6662994596,55.6204920183
303,район Южное Медведково,"127081, г. Москва, ул.Заповедная, д.12",(499) 477-34-59,Государственное бюджетное образовательное учреждение города Москвы средняя общеобразовательная школа № 1482,бюджетное,Найдина Юлия Анатольевна,37.6356419902,55.8673195939
304,район Марьино,"109652, г. Москва, ул. Люблинская, д. 173А",(495) 345-58-71,Государственное бюджетное общеобразовательное учреждение города Москвы «Школа № 1566 «Марьинская гимназия с кадетскими классами памяти Героев Сталинградской битвы»,бюджетное,Смирнова Татьяна Викторовна,37.75548514,55.6507744128
305,район Митино,"125222, г. Москва, ул. Пенягинская, д. 14",(495) 794-29-90,Государственное бюджетное общеобразовательное учреждение города Москвы «Гимназия № 1544»,бюджетное,Просветова Наталия Федоровна,37.3589603874,55.8366754855
306,район Чертаново Северное,"117208, г. Москва, Сумской пр., д.12, корп.6",(495) 312-55-63,Государственное бюджетное общеобразовательное учреждение города Москвы «Школа № 856»,бюджетное,Щагина Татьяна Владимировна,37.607975873,55.6365631036
307,район Проспект Вернадского,"119415, г. Москва, Проспект Вернадского, д. 55",(499) 432-09-37,Государственное бюджетное общеобразовательное учреждение города Москвы «Гимназия № 1541»,бюджетное,Шамкаева Алла Александровна,37.514321702,55.675270563
308,район Ново-Переделкино,"199633, г. Москва, ул.Новопеределкинская, д.9, корп.1",(495) 733-54-54,Государственное бюджетное общеобразовательное учреждение города Москвы «Школа № 1015»,бюджетное,Чужмарова Тамара Ибрагимовна,37.3605469505,55.6380211803
309,Ломоносовский район,"119331, г. Москва, ул. Крупской, д.9",(499) 138-04-38,Государственное бюджетное общеобразовательное учреждение города Москвы «Специальная (коррекционная) школа № 1708»,бюджетное,Новикова Тамара Никифоровна,37.5274709296,55.6859563986
310,район Северное Бутово,"117628, г. Москва, бульвар Дмитрия Донского, дом 6, корпус 1",(495) 712-08-46,Государственное бюджетное общеобразовательное учреждение города Москвы «Школа № 2114»,бюджетное,Зинин Андрей Сергеевич,37.5666216842,55.5708882771
311,Академический район,"119296, г. Москва, Ломоносовский проспект, дом 16",(499) 125-69-97,Государственное бюджетное общеобразовательное учреждение города Москвы «Лицей № 1533 (информационных технологий)»,бюджетное,Кравчук Татьяна Петровна,37.5608033865,55.6815732109
312,Лосиноостровский район,"129336, г. Москва, ул. Стартовая, д. 27, корп. 3",(495) 474-90-60,Государственное бюджетное общеобразовательное учреждение города Москвы «Школа № 763»,бюджетное,Федорова Анна Александровна,37.6974964269,55.8845639035
313,район Кунцево,"121552, г. Москва, ул.Оршанская, д.10, корп.1",(499) 141-24-05,Государственное бюджетное общеобразовательное учреждение города Москвы «Школа с углубленным изучением иностранного языка № 1293»,бюджетное,Фураева Елена Анатольевна,37.4103828467,55.7430026033
314,район Текстильщики,"109390, г. Москва, 1-ая улица Текстильщиков, д. 16",(499) 178-50-19,Государственное бюджетное общеобразовательное учреждение города Москвы «Школа № 687»,бюджетное,Акимова Надежда Дмитриевна,37.7439337454,55.7016060174
315,район Орехово-Борисово Южное,"115597, г. Москва, ул.Тамбовская, д.10",(495) 397-64-14,Государственное бюджетное общеобразовательное учреждение города Москвы «Школа № 979»,бюджетное,Носкова Любовь Яковлевна,37.7458694639,55.6032692925
316,Таганский район,"109544, г. Москва, Новорогожская ул., д.9",(495) 678-64-89,Государственное бюджетное общеобразовательное учреждение города Москвы «Школа № 1468»,бюджетное,Волкова Елена Витальевна,37.6881168216,55.7425323214
317,район Ясенево,"117574, г. Москва, ул. Вильнюсская, д.14",(495) 423-46-22,Государственное бюджетное общеобразовательное учреждение города Москвы «Школа № 1212»,бюджетное,Добрынина Ирина Владимировна,37.5229854256,55.6021207453
318,район Дорогомилово,"121170, г. Москва, Кутузовский пр., д.10, стр.1",(000) 000-00-00,Государственное бюджетное общеобразовательное учреждение города Москвы «Гимназия № 1567»,бюджетное,Козлов Андрей Ефимович,37.5283497471,55.7370986405
319,Можайский район,"121353, г. Москва, Беловежская ул., д. 67",(495) 447-24-54,Государственное бюджетное общеобразовательное учреждение города Москвы «Школа № 384 имени Д.К. Корнеева»,бюджетное,Самойлик Елена Васильевна,37.4015538055,55.7062457526
320,район Южное Бутово,"117148, г. Москва, ул. Маршала Савицкого, дом 26, корпус 4",(499) 232-10-76,Государственное бюджетное общеобразовательное учреждение города Москвы «Школа № 2109»,бюджетное,Егорова Любовь Николаевна,37.5928008851,55.5018330002
321,район Новокосино,"111673, г. Москва, Суздальская ул, 24 Б",(495) 701-05-00,Государственное бюджетное общеобразовательное учреждение города Москвы «Школа с углубленным изучением английского языка № 1200»,бюджетное,Дьячков Виктор Максимович,37.8592108648,55.7421611753
322,район Филёвский Парк,"121309, г. Москва, ул. Б.Филевская, д.15",(499) 145-16-48,Государственное бюджетное общеобразовательное учреждение города Москвы «Школа № 72»,бюджетное,Соболева Оксана Витальевна,37.4993033766,55.7476176562
323,Останкинский район,"129223, г. Москва, Мира проспект, д. 123",(495) 682-62-34,Государственное автономное общеобразовательное учреждение города Москвы «Школа с углубленным изучением отдельных предметов «ШИК 16»,автономное,Боос Надежда Валентиновна,37.6646243263,55.8343303237
324,район Крылатское,"121614, г. Москва, ул.Крылатские холмы, д.28, корп.1",(495) 413-37-05,Государственное бюджетное общеобразовательное учреждение города Москвы «Гимназия № 1593»,бюджетное,Алексеева Светлана Дмитриевна,37.414990272,55.7651842432
325,район Чертаново Центральное,"117587, г. Москва, ул.Кировоградская, д.18, корп.4",(495) 315-01-03,Государственное бюджетное образовательное учреждение города Москвы гимназия № 1582,бюджетное,Рыбакова Евгения Валентиновна,37.6044592314,55.6186173991
326,Академический район,"117036, г. Москва, ул.Дм.Ульянова, д.15, корп.1",(499) 125-28-12,Государственное бюджетное общеобразовательное учреждение города Москвы «Школа № 199»,бюджетное,Моисеева Валентина Викторовна,37.5717011021,55.6903992143
327,район Марьино,"109469, г. Москва, Мячковский бульвар, дом 21",(495) 658-61-35,Государственное бюджетное общеобразовательное учреждение города Москвы «Школа с углубленным изучением английского языка № 1319»,бюджетное,Самсонова Вера Семеновна,37.7614575789,55.6532847777
328,район Коптево,"125130, г. Москва, 4-й Новоподмосковный пер., д. 2а",(499) 154-60-61,Государственное бюджетное общеобразовательное учреждение города Москвы «Школа № 90 «Многопрофильный образовательный комплекс» имени Героя Советского Союза Е.Г. Ларикова»,бюджетное,Волосков Виктор Вадимович,37.5263787416,55.839234868
329,район Строгино,"123592, г. Москва, Строгинский бульвар, дом 7, корпус 3",(495) 756-93-57,Государственное бюджетное образовательное учреждение дополнительного образования города Москвы «Центр детского творчества «Строгино»,бюджетное,Корочина Татьяна Геннадьевна,37.455318555,55.8326739706
330,район Чертаново Центральное,"117519, г. Москва, улица Красного Маяка, 3 Г",(495) 389-27-36,Государственное бюджетное общеобразовательное учреждение города Москвы «Школа с углубленным изучением отдельных предметов № 879»,бюджетное,Мальцева Ольга Филипповна,37.5957185329,55.6099352087
331,район Ивановское,"111555, г. Москва, ул.Молостовых, д.6А",(495) 300-44-81,Государственное бюджетное образовательное учреждение города Москвы средняя общеобразовательная школа № 922,бюджетное,Дмитриева Ольга Владимировна,37.8279911291,55.7601136364
332,район Преображенское,"107553, г. Москва, ул.Большая Черкизовская, д.21, строение 2",(499) 161-42-92,Государственное бюджетное образовательное учреждение города Москвы центр дополнительного образования детей «Черкизовский парк»,бюджетное,Мостовщикова Лидия Васильевна,37.7380497441,55.800916083
333,район Ясенево,"117463, г. Москва, пр.Карамзина, д.13, корп.3",(495) 422-23-22,Государственное бюджетное общеобразовательное учреждение города Москвы «Школа № 1106»,бюджетное,Мотылева Лера Александровна,37.5479104534,55.5910174492
334,Нижегородский район,"109559, г. Москва, ул. Цимлянская, д. 7, стр. 1",(495) 361-07-00,"Государственное бюджетное профессиональное образовательное учреждение города Москвы «Колледж Архитектуры, Дизайна и Реинжиниринга № 26»",бюджетное,Афонин Константин Юрьевич,37.741524697,55.739955888
335,район Новогиреево,"111396, г. Москва, Федеративный просп., д.27",(495) 302-30-09,Государственное бюджетное общеобразовательное учреждение города Москвы «Школа с углубленным изучением английского языка № 1324»,бюджетное,Захарова Елена Сергеевна,37.8199601636,55.7492840368
336,район Измайлово,"105043, г. Москва, Нижняя Первомайская улица, дом 14",(495) 465-23-52,"Государственное бюджетное общеобразовательное учреждение города Москвы «Школа с углубленным изучением математики, информатики, физики № 444»",бюджетное,Северинец Павел Александрович,37.7965316996,55.789585215
337,район Замоскворечье,"115054, г. Москва, ул.Дубининская, д.25, стр.1",(495) 953-58-32,Государственное бюджетное профессиональное образовательное учреждение города Москвы «Колледж малого бизнеса № 4»,бюджетное,Антонова Тамара Петровна,37.6958924268,55.7771114387
338,район Отрадное,"127562, г. Москва, ул. Санникова, д.3, корп.3.",(499) 903-16-19,Государственное бюджетное общеобразовательное учреждение города Москвы «Школа № 962»,бюджетное,Полякова Лариса Александровна,37.5874489621,55.8620485673
339,район Восточный,"105173, г. Москва, ул. Главная, 9А",(499) 780-17-65,Государственное бюджетное общеобразовательное учреждение города Москвы «Школа № 1021»,бюджетное,Шемякина Елена Викторовна,37.8689474377,55.8169495112
340,район Покровское-Стрешнево,"115114, г. Москва, Дербеневская набережная, д. 3",(495) 491-57-81,Государственное бюджетное профессиональное образовательное учреждение города Москвы «Московский технологический колледж»,бюджетное,Волков Алексей Владимирович,37.4604999454,55.8075199852
341,район Восточное Дегунино,"127591, г. Москва, ул. Дубнинская, д. 46, кор. 2",(499) 480-45-48,Государственное бюджетное общеобразовательное учреждение города Москвы «Центр образования № 1678 «Восточное Дегунино»,бюджетное,Кашаева Елена Карловна,37.5611896058,55.8917921184
342,район Бирюлёво Западное,"117546, г. Москва, Харьковский пр., д.9Б",(495) 383-45-83,Государственное бюджетное общеобразовательное учреждение города Москвы «Школа № 2001»,бюджетное,Бойков Алексей Александрович,37.6502693276,55.5907104718
343,район Котловка,"117647, г. Москва, улица Академика Капицы, д.12",(499) 127-57-02,Государственное бюджетное общеобразовательное учреждение города Москвы «Школа с углубленным изучением английского языка № 1273»,бюджетное,Попов Михаил Александрович,37.5992531875,55.6435279214
344,Бабушкинский район,"129281, г. Москва, ул. Енисейская, д. 32, корпус 3",(499) 185-06-90,Государственное бюджетное общеобразовательное учреждение города Москвы «Школа с углубленным изучением французского языка № 1095»,бюджетное,Белова Надежда Сергеевна,37.6695354235,55.8708389902
345,район Силино,"124460, г. Москва, Зеленоград, корп. 1214",(499) 731-30-63,Государственное бюджетное общеобразовательное учреждение города Москвы «Школа № 718»,бюджетное,Коржова Ольга Николаевна,37.1929762185,55.9934782955
346,район Коптево,"125183, г. Москва, 4-й Новомихалковский проезд, дом № 14, строение № 3",(499) 153-86-21,Государственное казенное общеобразовательное учреждение города Москвы «Кадетская школа-интернат № 10 «Московский кадетский корпус полиции имени Героя Советского Союза А.И.Попрядухина»,бюджетное,Крымский Владимир Яковлевич,37.5450597174,55.8447747916
347,район Москворечье-Сабурово,"115211, г. Москва, Каширское ш., д.55, корп.7",(495) 344-70-84,Государственное бюджетное общеобразовательное учреждение города Москвы «Лицей № 1828 «Сабурово»,бюджетное,Архипова Елена Алексеевна,37.6997619637,55.638595262
348,Басманный район,"105082, г. Москва, Переведеновский пер., д.11",(499) 267-36-08,Государственное бюджетное общеобразовательное учреждение города Москвы «Школа № 1429 имени Героя Советского Союза Н.А. Боброва»,бюджетное,Смышляева Людмила Владимировна,37.6938741209,55.775380338
349,район Ново-Переделкино,"119634, г. Москва, ул.Шолохова, д.19",(495) 732-74-60,Государственное бюджетное образовательное учреждение города Москвы средняя общеобразовательная школа № 1432 «Новая школа»,бюджетное,Куколева Елена Николаевна,37.3402060899,55.6423687101
350,район Соколиная Гора,"105187, г. Москва, улица Лечебная, дом 20",(499) 166-99-01,Государственное бюджетное общеобразовательное учреждение города Москвы «Школа с углубленным изучением английского языка № 1362»,бюджетное,Комар Светлана Викторовна,37.7411420407,55.790099876
351,Красносельский район,"107140, г. Москва, Русаковская ул., д.10, стр.1",(499) 264-93-23,Государственное бюджетное общеобразовательное учреждение города Москвы «Школа № 315»,бюджетное,Шестакова Мария Федоровна,37.674110942,55.7834901595
352,район Москворечье-Сабурово,"115211, г. Москва, ул.Борисовские пруды, д.11, корп.1",(495) 342-25-68,Государственное бюджетное общеобразовательное учреждение города Москвы «Школа № 2017»,бюджетное,Седова Евгения Эмануиловна,37.7178864588,55.6364968022
353,район Нагатино-Садовники,"115533, г. Москва, Нагатинская наб., д.24",(000) 000-00-00,Государственное бюджетное общеобразовательное учреждение города Москвы «Школа с углубленным изучением английского языка № 1375»,бюджетное,Михарева Наталья Борисовна,37.657107828,55.6816914828
354,район Богородское,"105082, г. Москва, ул. Бакунинская, д. 81",(499) 160-26-32,Государственное бюджетное профессиональное образовательное учреждение города Москвы «Московский автомобильно-дорожный колледж им. А.А. Николаева»,бюджетное,Некрестьянова Светлана Яковлевна,37.7377314316,55.7825769061
355,район Хорошёво-Мнёвники,"123423, г. Москва, ул. Тухачевского, д. 17, корп. 3",(499) 191-10-17,Государственное бюджетное общеобразовательное учреждение города Москвы «Лицей № 1560»,бюджетное,Жданова Ирина Дмитриевна,37.4903652787,55.7747189921
356,район Чертаново Южное,"117405, г. Москва, ул. Газопровод, д.4",(000) 000-00-00,Государственное бюджетное образовательное учреждение дополнительного образования города Москвы «Детско-юношеский центр «Виктория»,бюджетное,Каневская Людмила Васильевна,37.6142368154,55.7136706751
357,район Тропарёво-Никулино,"119602, г. Москва, ул.Никулинская, д.10",(495) 651-35-98,Государственное бюджетное общеобразовательное учреждение города Москвы «Школа № 1329»,бюджетное,Бурмакина Вероника Федоровна,37.4736728979,55.6736557184
358,район Крюково,"124617, г. Москва, Зеленоград, корп. 1469",(499) 738-36-66,Государственное бюджетное общеобразовательное учреждение города Москвы «Школа № 1151»,бюджетное,Агапов Игорь Геннадьевич,37.1614268664,55.9861980814
359,Басманный район,"105005, г. Москва, Лефортовский пер., д.10",(499) 267-74-64,Государственное бюджетное общеобразовательное учреждение города Москвы «Школа № 354 имени Д.М. Карбышева»,бюджетное,Родионова Татьяна Константиновна,37.6803220622,55.7747462032
360,Хорошёвский район,"123308, г. Москва, ул. Зорге, д. 4",(499) 943-14-05,Государственное бюджетное образовательное учреждение города Москвы средняя общеобразовательная школа № 141,бюджетное,Худошин Виталий Валерьевич,37.513750675,55.7796914712
361,Молжаниновский район,"141411, г. Москва, ул. Синявинская, д.11А",(000) 000-00-00,Государственное бюджетное общеобразовательное учреждение города Москвы «Школа Перспектива»,бюджетное,Ермакова Ирина Германовна,37.3879796485,55.9263426508
362,Бабушкинский район,"129327, г. Москва, Чукотский пр., д.6",(495) 472-33-55,Государственное бюджетное образовательное учреждение города Москвы гимназия № 1558 имени Росалии де Кастро,бюджетное,Юсупова Галина Исаевна,37.6579870352,55.8682337232
363,район Фили-Давыдково,"121352, г. Москва, ул.Давыдковская, д.2, корп.6",(499) 737-68-12,Государственное бюджетное общеобразовательное учреждение города Москвы «Школа с углубленным изучением отдельных предметов № 1248»,бюджетное,Никитина Нина Ивановна,37.4668364566,55.724188703
364,Академический район,"117036, г. Москва, ул.Кедрова, д.11",(495) 718-99-29,Государственное бюджетное общеобразовательное учреждение города Москвы «Академическая гимназия № 1534»,бюджетное,Шейнина Ольга Семеновна,37.5971075286,55.6817092207
365,район Свиблово,"129343, г. Москва, ул. Амундсена, д.14, корп.1",(499) 760-01-17,Государственное бюджетное образовательное учреждение дополнительного образования города Москвы «Центр детского творчества «Свиблово»,бюджетное,Герасимова Наталья Анатольевна,37.6577073071,55.8551304131
366,район Черёмушки,"117418, г. Москва, ул. Цюрупы, д. 10, кор.3",(499) 128-56-24,Государственное бюджетное общеобразовательное учреждение города Москвы «Школа № 2115»,бюджетное,Семыкин Иван Петрович,37.5758420923,55.6697455643
367,район Савёлки,"124536, г. Москва, Зеленоград, корп. 509",(499) 734-25-20,Государственное бюджетное общеобразовательное учреждение города Москвы «Лицей № 1557»,бюджетное,Грабарник Татьяна Николаевна,37.2305724751,55.9987170388
368,район Северный,"127495, г. Москва, Дмитровское ш., д.165Е, корп.8",(499) 661-50-26,Государственное бюджетное общеобразовательное учреждение города Москвы «Школа № 2044»,бюджетное,Загоранская Ольга Анатольевна,37.5441452684,55.9282076827
369,Таганский район,"109029, г. Москва, ул.Средняя Калитниковская, д.22, стр.1",(495) 670-17-60,Государственное бюджетное общеобразовательное учреждение города Москвы «Школа № 480 им. В.В.Талалихина»,бюджетное,Гусева Елена Прокофьевна,37.6768036713,55.7344869934
370,Пресненский район,"125009, г. Москва, Леонтьевский пер., д.19/2, стр.1",(495) 690-04-35,Государственное бюджетное общеобразовательное учреждение города Москвы «Гимназия № 1520 имени Капцовых»,бюджетное,Кириченко Вита Викторовна,37.6033487706,55.7563343316
371,район Беговой,"125040, г. Москва, улица Скаковая, дом 20, стр. 1",(495) 614-14-43,Государственное бюджетное образовательное учреждение города Москвы средняя общеобразовательная школа № 1784 «Кадетская школа»,бюджетное,Кондратьева Светлана Алексеевна,37.5764160668,55.7777810625
372,район Перово,"111401, г. Москва, ул. 2-я Владимирская, дом 22 А",(495) 306-27-37,Государственное бюджетное образовательное учреждение города Москвы средняя общеобразовательная школа № 1852,бюджетное,Трушин Виталий Викторович,37.7784142277,55.7585392213
373,район Хорошёво-Мнёвники,"123103, г. Москва, ул. Живописная, д. 11, корп. 1",(499) 199-58-87,Государственное бюджетное общеобразовательное учреждение города Москвы «Гимназия № 1517»,бюджетное,Вахнеева Анна Алексеевна,37.4585248359,55.780057129
374,район Коньково,"117279, г. Москва, ул. Введенского, д.28",(495) 420-90-01,Государственное бюджетное общеобразовательное учреждение города Москвы «Школа № 17»,бюджетное,Силиванова Ксения Викторовна,37.5282504507,55.6353929848
375,район Митино,"125222, г. Москва, улица Дубравная, дом 41, корпус 3",(495) 752-69-97,Государственное бюджетное общеобразовательное учреждение города Москвы «Школа с углублённым изучением иностранных языков № 1900»,бюджетное,Нестин Сергей Александрович,37.3633816565,55.8403376743
376,район Братеево,"115211, г. Москва, ул. Борисовские пруды, д.12, корп. 2",(495) 341-59-96,Государственное бюджетное общеобразовательное учреждение города Москвы «Школа № 1929»,бюджетное,Рыбина Ирина Ивановна,37.7437395917,55.635740279
377,Головинский район,"125438, г. Москва, 3-й Лихачевский переулок, д. 2а",(495) 456-47-92,Государственное бюджетное общеобразовательное учреждение города Москвы «Школа № 727»,бюджетное,Белоусова Надежда Владимировна,37.5169051688,55.8471623341
378,район Выхино-Жулебино,"109444, г. Москва, ул. Ташкентская, д. 21, к.2",(495) 376-32-13,Государственное бюджетное общеобразовательное учреждение города Москвы «Школа лицей № 1420»,бюджетное,Николаева Антонина Ивановна,37.8112303036,55.6987719608
379,район Бирюлёво Восточное,"115404, г. Москва, ул. Ряжская, дом 11",(495) 326-16-26,Государственное бюджетное общеобразовательное учреждение города Москвы «Школа № 902 «Диалог»,бюджетное,Ильяшенко Александр Викторович,37.6681141501,55.5966646749
380,Савёловский район,"127220, г. Москва, ул. Писцовая, д. 7а",(495) 613-89-72,Государственное бюджетное общеобразовательное учреждение города Москвы «Школа № 1164»,бюджетное,Радюн Сергей Болеславович,37.5740925132,55.7974477033
381,район Северное Бутово,"117628, г. Москва, ул. Старокачаловская, владение 22",(495) 713-68-63,Государственное бюджетное общеобразовательное учреждение города Москвы «Школа № 1945 «Синяя птица»,бюджетное,Викторова Наталья Геннадиевна,37.5893893118,55.570594301
